id,name,type,address,city,postcode,lat,lon,website,phone,opening_hours,price_tier,avg_rating,suggested_duration,tags,image_url,description_short,
1,British Museum,Museum,Great Russell St,London,WC1B 3DG,51.5194,-0.127,https://www.britishmuseum.org,+44 20 7323 8299,10:00-17:00,1,4.8,180,History;Rainy Day;Family,https://plus.unsplash.com/premium_photo-1661925387774-b1ba6b7bb0ad?q=80&w=1161&auto=format&fit=crop&ixlib=rb-4.1.0&ixid=M3wxMjA3fDB8MHxwaG90by1wYWdlfHx8fGVufDB8fHx8fA%3D%3D,World-famous museum of human history and culture.,
2,Tower of London,Castle,St Katharine's & Wapping,London,EC3N 4AB,51.5081,-0.0759,https://www.hrp.org.uk/tower-of-london,+44 20 3166 6000,09:00-17:30,4,4.7,180,History;Crown Jewels;Iconic,https://images.unsplash.com/photo-1590506903984-49154c7ce1a0?q=80&w=735&auto=format&fit=crop&ixlib=rb-4.1.0&ixid=M3wxMjA3fDB8MHxwaG90by1wYWdlfHx8fGVufDB8fHx8fA%3D%3D,Historic castle and home of the Crown Jewels.,
3,V&A Museum,Museum,Cromwell Rd,London,SW7 2RL,51.4966,-0.1722,https://www.vam.ac.uk,+44 20 7942 2000,10:00-17:45,1,4.8,150,Art;Design;Fashion,https://plus.unsplash.com/premium_photo-1658506813192-074af2c51d66?q=80&w=1147&auto=format&fit=crop&ixlib=rb-4.1.0&ixid=M3wxMjA3fDB8MHxwaG90by1wYWdlfHx8fGVufDB8fHx8fA%3D%3D,"Leading museum of art, design, and performance.",
4,Natural History Museum,Museum,Cromwell Rd,London,SW7 5BD,51.4967,-0.1764,https://www.nhm.ac.uk,+44 20 7942 5000,10:00-17:50,1,4.7,180,Dinosaurs;Science;Kids,https://images.unsplash.com/photo-1661108181859-c7932252796b?q=80&w=1170&auto=format&fit=crop&ixlib=rb-4.1.0&ixid=M3wxMjA3fDB8MHxwaG90by1wYWdlfHx8fGVufDB8fHx8fA%3D%3D,Home to life and earth science specimens.,
5,Tate Modern,Gallery,Bankside,London,SE1 9TG,51.5076,-0.0994,https://www.tate.org.uk/visit/tate-modern,+44 20 7887 8888,10:00-18:00,1,4.5,90,Art;Modern;Views,https://upload.wikimedia.org/wikipedia/commons/thumb/0/00/Tate_Modern_-_Bankside_Power_Station.jpg/960px-Tate_Modern_-_Bankside_Power_Station.jpg,International modern and contemporary art.,
6,London Eye,Attraction,Riverside Building,London,SE1 7PB,51.5033,-0.1195,https://www.londoneye.com,+44 870 990 8883,11:00-18:00,4,4.5,45,Views;Iconic;Romantic,https://images.unsplash.com/photo-1545853332-147d5073187e?q=80&w=687&auto=format&fit=crop&ixlib=rb-4.1.0&ixid=M3wxMjA3fDB8MHxwaG90by1wYWdlfHx8fGVufDB8fHx8fA%3D%3D,Giant observation wheel on the South Bank.,
7,Sky Garden,Attraction,1 Sky Garden Walk,London,EC3M 8AF,51.5112,-0.0835,https://skygarden.london,+44 20 7337 2344,10:00-18:00,1,4.6,60,Views;Instagrammable;Bar,https://upload.wikimedia.org/wikipedia/commons/c/ca/The_Sky_Garden.jpg,London's highest public garden with 360 views.,
8,Borough Market,Food,8 Southwark St,London,SE1 1TL,51.5055,-0.0903,https://boroughmarket.org.uk,+44 20 7407 1002,10:00-17:00,2,4.7,60,Foodie;Lunch;Bustling,https://upload.wikimedia.org/wikipedia/commons/thumb/2/2d/London_2018_March_IMG_0663.jpg/500px-London_2018_March_IMG_0663.jpg,Historic market hall with gourmet food stalls.,
9,Roman Baths,History,Abbey Church Yard,Bath,BA1 1LZ,51.3809,-2.3597,https://www.romanbaths.co.uk,+44 1225 477785,09:00-18:00,3,4.6,90,History;Romans;Unique,https://images.unsplash.com/photo-1691419712300-3f29595dda17?q=80&w=687&auto=format&fit=crop&ixlib=rb-4.1.0&ixid=M3wxMjA3fDB8MHxwaG90by1wYWdlfHx8fGVufDB8fHx8fA%3D%3D,Well-preserved Roman public bathing site.,
10,Stonehenge,History,Salisbury,Wiltshire,SP4 7DE,51.1789,-1.8262,https://www.english-heritage.org.uk,+44 370 333 1181,09:30-17:00,3,4.2,90,History;Ancient;Outdoors,https://upload.wikimedia.org/wikipedia/commons/thumb/3/3c/Stonehenge2007_07_30.jpg/800px-Stonehenge2007_07_30.jpg,Prehistoric ring of standing stones.,
11,Edinburgh Castle,Castle,Castlehill,Edinburgh,EH1 2NG,55.9486,-3.1999,https://www.edinburghcastle.scot,+44 131 225 9846,09:30-18:00,3,4.6,120,History;Views;Scotland,https://images.unsplash.com/photo-1557096002-7f215e6b5dcf?q=80&w=1170&auto=format&fit=crop&ixlib=rb-4.1.0&ixid=M3wxMjA3fDB8MHxwaG90by1wYWdlfHx8fGVufDB8fHx8fA%3D%3D,Historic fortress dominating the Edinburgh skyline.,
12,National Museum of Scotland,Museum,Chambers St,Edinburgh,EH1 1JF,55.9469,-3.1904,https://www.nms.ac.uk,+44 300 123 6789,10:00-17:00,1,4.8,120,History;Family;Rainy Day,https://upload.wikimedia.org/wikipedia/commons/thumb/b/b2/Museum_of_Scotland.jpg/500px-Museum_of_Scotland.jpg,Collections of Scottish antiquities and culture.,
13,Arthur's Seat,Nature,Holyrood Park,Edinburgh,EH8 8AZ,55.9442,-3.1618,https://www.historicenvironment.scot,,24-Jul,1,4.7,120,Hiking;Views;Nature,https://upload.wikimedia.org/wikipedia/commons/thumb/1/1d/Arthur%27s_Seat_from_Salisbury_Crags.jpg/800px-Arthur%27s_Seat_from_Salisbury_Crags.jpg,Ancient volcano sitting 251m above sea level.,
14,Kelvingrove Art Gallery,Gallery,Argyle St,Glasgow,G3 8AG,55.8686,-4.2906,https://www.glasgowlife.org.uk,+44 141 276 9599,10:00-17:00,1,4.7,90,Art;History;Free,https://upload.wikimedia.org/wikipedia/commons/thumb/1/1a/Kelvingrove_Art_Gallery_and_Museum.jpg/800px-Kelvingrove_Art_Gallery_and_Museum.jpg,Grand museum featuring 22 themed galleries.,
15,Riverside Museum,Museum,100 Pointhouse Rd,Glasgow,G3 8RS,55.8651,-4.3061,https://www.glasgowlife.org.uk,+44 141 287 2720,10:00-17:00,1,4.6,90,Transport;Kids;Modern,https://upload.wikimedia.org/wikipedia/commons/thumb/3/3e/Riverside_Museum_Glasgow_2011.jpg/800px-Riverside_Museum_Glasgow_2011.jpg,Award-winning transport museum designed by Zaha Hadid.,
16,Brighton Palace Pier,Attraction,Madeira Dr,Brighton,BN2 1TW,50.8163,-0.1373,https://www.brightonpier.co.uk,+44 1273 609361,10:00-20:00,2,4.3,60,Seaside;Fun;Arcade,https://upload.wikimedia.org/wikipedia/commons/thumb/4/4c/Brighton_Pier_at_sunset.jpg/800px-Brighton_Pier_at_sunset.jpg,Famous pleasure pier with rides and arcades.,
17,Royal Pavilion,History,4/5 Pavilion Bldgs,Brighton,BN1 1EE,50.8228,-0.1375,https://brightonmuseums.org.uk,+44 300 029 0900,10:00-17:15,3,4.5,75,Architecture;Royal;Unique,https://upload.wikimedia.org/wikipedia/commons/thumb/7/76/Royal_Pavilion_Brighton.jpg/800px-Royal_Pavilion_Brighton.jpg,Exotic palace with Indian and Chinese influence.,
18,York Minster,History,Deangate,York,YO1 7HH,53.9623,-1.0819,https://yorkminster.org,+44 1904 557200,09:30-16:00,3,4.7,60,Religion;Architecture;Views,https://upload.wikimedia.org/wikipedia/commons/thumb/c/c8/York_Minster_from_Mogay.jpg/800px-York_Minster_from_Mogay.jpg,One of the largest cathedrals in Northern Europe.,
19,The Shambles,History,The Shambles,York,YO1 7LX,53.9594,-1.0804,https://www.visityork.org,,24-Jul,1,4.6,30,Shopping;Harry Potter;Quaint,https://upload.wikimedia.org/wikipedia/commons/thumb/8/86/The_Shambles%2C_York%2C_England.jpg/800px-The_Shambles%2C_York%2C_England.jpg,Medieval narrow street with timber-framed buildings.,
20,Jorvik Viking Centre,Museum,19 Coppergate,York,YO1 9WT,53.9576,-1.0805,https://www.jorvikvikingcentre.co.uk,+44 1904 615505,10:00-17:00,3,4.5,60,History;Vikings;Interactive,https://upload.wikimedia.org/wikipedia/commons/thumb/9/98/Jorvik_Viking_Centre_street_scene.jpg/800px-Jorvik_Viking_Centre_street_scene.jpg,Reconstruction of Viking-age streets and smells.,
21,Royal Albert Dock,Attraction,3-4 The Colonnades,Liverpool,L3 4AA,53.4014,-2.9936,https://albertdock.com,+44 151 709 8111,24-Jul,1,4.7,60,History;Walk;Food,https://upload.wikimedia.org/wikipedia/commons/thumb/f/f0/Albert_Dock_Liverpool.jpg/800px-Albert_Dock_Liverpool.jpg,Historic waterfront complex with museums and bars.,
22,The Beatles Story,Museum,Britannia Vaults,Liverpool,L3 4AD,53.3992,-2.9922,https://www.beatlesstory.com,+44 151 709 1963,09:00-17:00,3,4.5,90,Music;Culture;Fans,https://upload.wikimedia.org/wikipedia/commons/thumb/8/82/Beatles_Story_entrance.jpg/800px-Beatles_Story_entrance.jpg,The world's largest permanent Beatles exhibition.,
23,Chester Zoo,Zoo,Moston Rd,Chester,CH2 1EU,53.2274,-2.8844,https://www.chesterzoo.org,+44 1244 380280,10:00-17:00,4,4.8,240,Animals;Family;Outdoor,https://upload.wikimedia.org/wikipedia/commons/thumb/2/23/Elephants_at_Chester_Zoo.jpg/800px-Elephants_at_Chester_Zoo.jpg,UK's most visited zoo with over 35000 animals.,
24,Lake Windermere,Nature,Windermere,Cumbria,LA23 1LJ,54.3739,-2.9376,https://www.lakedistrict.gov.uk,,24-Jul,2,4.8,120,Lakes;Boating;Scenery,https://upload.wikimedia.org/wikipedia/commons/thumb/8/82/Windermere_Lake.jpg/800px-Windermere_Lake.jpg,Largest natural lake in England.,
25,Eden Project,Nature,Bodelva,Cornwall,PL24 2SG,50.3605,-4.7447,https://www.edenproject.com,+44 1726 811911,09:30-18:00,4,4.5,180,Nature;Eco;Gardens,https://upload.wikimedia.org/wikipedia/commons/thumb/c/c2/Eden_Project_geodesic_domes_panorama.jpg/800px-Eden_Project_geodesic_domes_panorama.jpg,Massive biomes housing the world's largest rainforest.,
26,St Michael's Mount,History,Marazion,Cornwall,TR17 0HS,50.1171,-5.4776,https://www.stmichaelsmount.co.uk,+44 1736 710265,10:00-17:00,3,4.7,120,Island;Castle;Tides,https://upload.wikimedia.org/wikipedia/commons/thumb/5/5f/St_Michael%27s_Mount_from_Marazion_Beach.jpg/800px-St_Michael%27s_Mount_from_Marazion_Beach.jpg,Tidal island with a medieval church and castle.,
27,Windsor Castle,Castle,Windsor,Berkshire,SL4 1NJ,51.4839,-0.6044,https://www.rct.uk/visit/windsor-castle,+44 303 123 7304,10:00-17:15,4,4.5,120,Royal;History;Castle,https://upload.wikimedia.org/wikipedia/commons/thumb/6/60/Windsor_Castle_Upper_Ward_Quadrangle_view_from_Round_Tower.jpg/800px-Windsor_Castle_Upper_Ward_Quadrangle_view_from_Round_Tower.jpg,The oldest and largest occupied castle in the world.,
28,Warwick Castle,Castle,Warwick,Warwickshire,CV34 4QU,52.2792,-1.5852,https://www.warwick-castle.com,+44 1926 495421,10:00-16:00,4,4.4,180,Family;Events;History,https://upload.wikimedia.org/wikipedia/commons/thumb/8/87/Warwick_Castle_East_Front.jpg/800px-Warwick_Castle_East_Front.jpg,Medieval castle with daily shows and attractions.,
29,Titanic Belfast,Museum,1 Olympic Way,Belfast,BT3 9EP,54.6078,-5.908,https://www.titanicbelfast.com,+44 28 9076 6386,09:00-18:00,3,4.7,120,History;Maritime;Modern,https://upload.wikimedia.org/wikipedia/commons/thumb/7/77/Titanic_Belfast_2012.jpg/800px-Titanic_Belfast_2012.jpg,Visitor attraction on the spot Titanic was built.,
30,Giant's Causeway,Nature,44 Causeway Rd,Antrim,BT57 8SU,55.2408,-6.5116,https://www.nationaltrust.org.uk,+44 28 2073 1855,09:00-18:00,2,4.7,90,Nature;Hiking;Geology,https://upload.wikimedia.org/wikipedia/commons/thumb/1/15/Giants_Causeway_2010.jpg/800px-Giants_Causeway_2010.jpg,Area of 40000 interlocking basalt columns.,
31,Carrick-a-Rede Rope Bridge,Nature,119a Whitepark Rd,Antrim,BT54 6LS,55.2398,-6.3326,https://www.nationaltrust.org.uk,+44 28 2076 9839,09:30-17:30,3,4.6,60,Adventure;Views;Scary,https://upload.wikimedia.org/wikipedia/commons/thumb/e/e3/Carrick-a-Rede_Rope_Bridge_Northern_Ireland.jpg/800px-Carrick-a-Rede_Rope_Bridge_Northern_Ireland.jpg,Rope bridge spanning 20 metres to a tiny island.,
32,Crumlin Road Gaol,History,53-55 Crumlin Rd,Belfast,BT14 6ST,54.6094,-5.9422,https://www.crumlinroadgaol.com,+44 28 9074 1500,10:00-16:30,3,4.6,60,History;Dark;Tours,https://upload.wikimedia.org/wikipedia/commons/thumb/8/8a/Crumlin_Road_Gaol_Belfast.jpg/800px-Crumlin_Road_Gaol_Belfast.jpg,19th-century prison with historical tours.,
33,Cardiff Castle,Castle,Castle St,Cardiff,CF10 3RB,51.4815,-3.1806,https://www.cardiffcastle.com,+44 29 2087 8100,09:00-18:00,3,4.5,90,History;Gothic;Wales,https://upload.wikimedia.org/wikipedia/commons/thumb/7/78/Cardiff_Castle.jpg/800px-Cardiff_Castle.jpg,Medieval castle and Victorian Gothic revival mansion.,
34,St Fagans National Museum,Museum,St Fagans,Cardiff,CF5 6XB,51.4868,-3.2721,https://museum.wales/stfagans,+44 300 111 2333,10:00-17:00,1,4.8,180,History;Open Air;Wales,https://upload.wikimedia.org/wikipedia/commons/thumb/9/90/St_Fagans_National_History_Museum.jpg/800px-St_Fagans_National_History_Museum.jpg,Open-air museum chronicling Welsh life.,
35,Snowdon Mountain Railway,Nature,Llanberis,Gwynedd,LL55 4TT,53.1165,-4.1186,https://snowdonrailway.co.uk,+44 1286 870223,Varies by season,4,4.5,150,Nature;Train;Views,https://upload.wikimedia.org/wikipedia/commons/thumb/5/52/Snowdon_Mountain_Railway_No._2.jpg/800px-Snowdon_Mountain_Railway_No._2.jpg,Rack and pinion railway to the summit of Snowdon.,
36,Pontcysyllte Aqueduct,Nature,Station Rd,Wrexham,LL20 7TG,52.9705,-3.0878,https://www.pontcysyllte-aqueduct.co.uk,,24-Jul,1,4.7,45,Views;Canal;Height,https://upload.wikimedia.org/wikipedia/commons/thumb/f/fe/Pontcysyllte_Aqueduct.jpg/800px-Pontcysyllte_Aqueduct.jpg,Navigable aqueduct that carries the Llangollen Canal.,
37,Conwy Castle,Castle,Rose Hill St,Conwy,LL32 8AY,53.2801,-3.8262,https://cadw.gov.wales,+44 300 025 2239,09:30-17:00,3,4.7,90,History;Fortress;Views,https://upload.wikimedia.org/wikipedia/commons/thumb/4/43/Conwy_Castle_from_south_west.jpg/800px-Conwy_Castle_from_south_west.jpg,"Gritty, dark-stoned fortress built by Edward I.",
38,Portmeirion Village,Attraction,Minffordd,Gwynedd,LL48 6ER,52.9133,-4.0991,https://portmeirion.wales,+44 1766 770000,09:30-18:30,3,4.4,120,Architecture;Italian;Unique,https://upload.wikimedia.org/wikipedia/commons/thumb/5/57/Portmeirion_Village.jpg/800px-Portmeirion_Village.jpg,Tourist village designed in the style of an Italian village.,
39,Caernarfon Castle,Castle,Castle Ditch,Gwynedd,LL55 2AY,53.1393,-4.2769,https://cadw.gov.wales,+44 300 025 2239,09:30-17:00,3,4.6,90,History;Royal;Fortress,https://upload.wikimedia.org/wikipedia/commons/thumb/c/c3/Caernarfon_Castle_Eagle_Tower_and_Queen%27s_Tower.jpg/800px-Caernarfon_Castle_Eagle_Tower_and_Queen%27s_Tower.jpg,Medieval fortress and World Heritage Site.,
40,Eilean Donan Castle,Castle,Dornie,Highlands,IV40 8DX,57.2739,-5.5161,https://www.eileandonancastle.com,+44 1599 555202,10:00-16:00,3,4.6,60,Iconic;Views;Scotland,https://upload.wikimedia.org/wikipedia/commons/thumb/9/93/Eilean_Donan_Castle%2C_Scotland_-_May_2009.jpg/800px-Eilean_Donan_Castle%2C_Scotland_-_May_2009.jpg,One of the most photographed monuments in Scotland.,
41,Skara Brae,History,Sandwick,Orkney,KW16 3LR,59.0494,-3.3411,https://www.historicenvironment.scot,+44 1856 841815,09:30-17:30,3,4.7,60,Ancient;Archaeology;Islands,https://upload.wikimedia.org/wikipedia/commons/thumb/2/22/Skara_Brae.jpg/800px-Skara_Brae.jpg,Stone-built Neolithic settlement.,
42,Loch Ness Centre,Attraction,Drumnadrochit,Highlands,IV63 6TU,57.3366,-4.4795,https://lochness.com,+44 1456 453412,10:00-17:00,3,4,60,Mystery;Nature;Water,https://upload.wikimedia.org/wikipedia/commons/thumb/2/2a/Loch_Ness_looking_south.jpg/800px-Loch_Ness_looking_south.jpg,Exhibition centre exploring the loch and its monster.,
43,Durham Cathedral,History,The College,Durham,DH1 3EH,54.7735,-1.5764,https://www.durhamcathedral.co.uk,+44 191 338 7178,10:00-16:00,1,4.8,60,Religion;Architecture;Harry Potter,https://upload.wikimedia.org/wikipedia/commons/thumb/0/07/Durham_Cathedral._The_River_Wear.jpg/800px-Durham_Cathedral._The_River_Wear.jpg,UNESCO site and masterpiece of Romanesque architecture.,
44,Angel of the North,Art,Durham Rd,Gateshead,NE9 7TY,54.9141,-1.5894,https://www.gateshead.gov.uk,,24-Jul,1,4.4,20,Art;Iconic;Roadside,https://upload.wikimedia.org/wikipedia/commons/thumb/e/e0/Angel_of_the_North_across_A1.jpg/800px-Angel_of_the_North_across_A1.jpg,Contemporary sculpture by Antony Gormley.,
45,Lindisfarne Castle,Castle,Holy Island,Northumberland,TD15 2SE,55.6687,-1.7853,https://www.nationaltrust.org.uk,+44 1289 389244,Check tide times,3,4.5,60,History;Island;Tides,https://upload.wikimedia.org/wikipedia/commons/thumb/9/9c/Lindisfarne_Castle_Holy_Island.jpg/800px-Lindisfarne_Castle_Holy_Island.jpg,16th-century castle located on Holy Island.,
46,Seven Sisters Cliffs,Nature,Exceat,Sussex,BN25 4AD,50.7584,0.1903,https://www.sevensisters.org.uk,,24-Jul,1,4.8,120,Hiking;Views;Coast,https://upload.wikimedia.org/wikipedia/commons/thumb/6/6f/Seven_Sisters_Sussex.jpg/800px-Seven_Sisters_Sussex.jpg,Series of chalk cliffs by the English Channel.,
47,Durdle Door,Nature,West Lulworth,Dorset,BH20 5PU,50.6211,-2.2769,https://www.visit-dorset.com,,24-Jul,1,4.7,90,Beaches;Hiking;Coast,https://upload.wikimedia.org/wikipedia/commons/thumb/2/23/Durdle_Door_Overview.jpg/800px-Durdle_Door_Overview.jpg,Natural limestone arch on the Jurassic Coast.,
48,Cotswold Wildlife Park,Zoo,Bradwell Grove,Burford,OX18 4JP,51.7891,-1.6569,https://www.cotswoldwildlifepark.co.uk,+44 1993 823006,10:00-18:00,3,4.6,180,Animals;Family;Gardens,https://upload.wikimedia.org/wikipedia/commons/thumb/f/f6/Cotswold_Wildlife_Park_Manor_House.jpg/800px-Cotswold_Wildlife_Park_Manor_House.jpg,Park set in 160 acres of parkland and gardens.,
49,Blenheim Palace,History,Woodstock,Oxfordshire,OX20 1PP,51.8416,-1.3614,https://www.blenheimpalace.com,+44 1993 810530,10:30-17:30,4,4.5,150,History;Gardens;Luxury,https://upload.wikimedia.org/wikipedia/commons/thumb/c/c7/Blenheim_Palace_2006.jpg/800px-Blenheim_Palace_2006.jpg,Monumental country house and birthplace of Churchill.,
50,Shakespeare's Birthplace,History,Henley St,Stratford-upon-Avon,CV37 6QW,52.1935,-1.7068,https://www.shakespeare.org.uk,+44 1789 204016,10:00-16:00,3,4.4,60,History;Literature;Tudor,https://upload.wikimedia.org/wikipedia/commons/thumb/e/e4/Shakespeare%27s_Birthplace_Stratford.jpg/800px-Shakespeare%27s_Birthplace_Stratford.jpg,Restored 16th-century half-timbered house.,
51,The Savoy,Hotel,Strand,London,WC2R 0EZ,51.5106,-0.12,https://www.thesavoylondon.com,+44 20 7836 4343,24-Jul,4,4.7,720,Luxury;History;Iconic,https://upload.wikimedia.org/wikipedia/commons/thumb/e/e4/Shakespeare%27s_Birthplace_Stratford.jpg/800px-Shakespeare%27s_Birthplace_Stratford.jpg,null,
52,Hotel Cafe Royal,Hotel,68 Regent Street,London,W1B 4DY,51.51,-0.136,https://www.hotelcaferoyal.com,+44 20 7406 3333,24-Jul,4,4.6,720,Luxury;Spa;West End,https://upload.wikimedia.org/wikipedia/commons/thumb/e/e4/Shakespeare%27s_Birthplace_Stratford.jpg/800px-Shakespeare%27s_Birthplace_Stratford.jpg,null,
53,The Connaught,Hotel,Carlos Place,London,W1K 2AL,51.5097,-0.1495,https://www.the-connaught.co.uk,+44 20 7499 7070,24-Jul,4,4.8,720,Luxury;Mayfair;Bar,https://upload.wikimedia.org/wikipedia/commons/thumb/e/e4/Shakespeare%27s_Birthplace_Stratford.jpg/800px-Shakespeare%27s_Birthplace_Stratford.jpg,null,
54,Raffles London at The OWO,Hotel,57 Whitehall,London,SW1A 2BX,51.505,-0.126,https://www.raffles.com/london,+44 20 3907 7500,24-Jul,4,4.7,720,History;Luxury;New,https://upload.wikimedia.org/wikipedia/commons/thumb/e/e4/Shakespeare%27s_Birthplace_Stratford.jpg/800px-Shakespeare%27s_Birthplace_Stratford.jpg,null,
55,Claridge's,Hotel,Brook Street,London,W1K 4HR,51.5126,-0.1478,https://www.claridges.co.uk,+44 20 7629 8860,24-Jul,4,4.8,720,Royalty;Tea;Art Deco,https://upload.wikimedia.org/wikipedia/commons/thumb/e/e4/Shakespeare%27s_Birthplace_Stratford.jpg/800px-Shakespeare%27s_Birthplace_Stratford.jpg,null,
56,The Ritz London,Hotel,150 Piccadilly,London,W1J 9BR,51.507,-0.1416,https://www.theritzlondon.com,+44 20 7493 8181,24-Jul,4,4.6,720,Iconic;Tea;Luxury,https://upload.wikimedia.org/wikipedia/commons/thumb/e/e4/Shakespeare%27s_Birthplace_Stratford.jpg/800px-Shakespeare%27s_Birthplace_Stratford.jpg,null,
57,The Dorchester,Hotel,53 Park Lane,London,W1K 1QA,51.5073,-0.1534,https://www.dorchestercollection.com,+44 20 7629 8888,24-Jul,4,4.7,720,Park Lane;Classic;Celebs,https://upload.wikimedia.org/wikipedia/commons/thumb/e/e4/Shakespeare%27s_Birthplace_Stratford.jpg/800px-Shakespeare%27s_Birthplace_Stratford.jpg,null,
58,Mandarin Oriental Hyde Park,Hotel,66 Knightsbridge,London,SW1X 7LA,51.502,-0.16,https://www.mandarinoriental.com,+44 20 7235 2000,24-Jul,4,4.6,720,Hyde Park;Luxury;Spa,https://upload.wikimedia.org/wikipedia/commons/thumb/e/e4/Shakespeare%27s_Birthplace_Stratford.jpg/800px-Shakespeare%27s_Birthplace_Stratford.jpg,null,
59,Shangri-La The Shard,Hotel,31 St Thomas Street,London,SE1 9QU,51.5045,-0.0865,https://www.shangri-la.com,+44 20 7234 8000,24-Jul,4,4.7,720,Views;Modern;Romance,https://upload.wikimedia.org/wikipedia/commons/thumb/e/e4/Shakespeare%27s_Birthplace_Stratford.jpg/800px-Shakespeare%27s_Birthplace_Stratford.jpg,null,
60,The Langham,Hotel,1C Portland Place,London,W1B 1JA,51.516,-0.144,https://www.langhamhotels.com,+44 20 7636 1000,24-Jul,4,4.6,720,History;Tea;Regent St,https://upload.wikimedia.org/wikipedia/commons/thumb/e/e4/Shakespeare%27s_Birthplace_Stratford.jpg/800px-Shakespeare%27s_Birthplace_Stratford.jpg,null,
61,Rosewood London,Hotel,252 High Holborn,London,WC1V 7EN,51.5176,-0.118,https://www.rosewoodhotels.com,+44 20 7781 8888,24-Jul,4,4.7,720,Stylish;Bar;Central,https://upload.wikimedia.org/wikipedia/commons/thumb/e/e4/Shakespeare%27s_Birthplace_Stratford.jpg/800px-Shakespeare%27s_Birthplace_Stratford.jpg,null,
62,Ham Yard Hotel,Hotel,1 Ham Yard,London,W1D 7DT,51.511,-0.135,https://www.firmdalehotels.com,+44 20 3642 2000,24-Jul,4,4.8,720,Boutique;Soho;Design,https://upload.wikimedia.org/wikipedia/commons/thumb/e/e4/Shakespeare%27s_Birthplace_Stratford.jpg/800px-Shakespeare%27s_Birthplace_Stratford.jpg,null,
63,Corinthia London,Hotel,Whitehall Place,London,SW1A 2BD,51.5068,-0.1245,https://www.corinthia.com,+44 20 7930 8181,24-Jul,4,4.7,720,Spa;Luxury;Whitehall,https://upload.wikimedia.org/wikipedia/commons/thumb/e/e4/Shakespeare%27s_Birthplace_Stratford.jpg/800px-Shakespeare%27s_Birthplace_Stratford.jpg,null,
64,The Ned,Hotel,27 Poultry,London,EC2R 8AJ,51.5135,-0.089,https://www.thened.com,+44 20 3828 2000,24-Jul,3,4.5,720,City;Nightlife;Dining,https://upload.wikimedia.org/wikipedia/commons/thumb/e/e4/Shakespeare%27s_Birthplace_Stratford.jpg/800px-Shakespeare%27s_Birthplace_Stratford.jpg,null,
65,Sea Containers London,Hotel,20 Upper Ground,London,SE1 9PD,51.508,-0.1065,https://www.seacontainerslondon.com,+44 20 3747 1000,24-Jul,3,4.5,720,River;Views;Modern,https://upload.wikimedia.org/wikipedia/commons/thumb/e/e4/Shakespeare%27s_Birthplace_Stratford.jpg/800px-Shakespeare%27s_Birthplace_Stratford.jpg,null,
66,The Wolseley,Restaurant,160 Piccadilly,London,W1J 9EB,51.5072,-0.1415,https://www.thewolseley.com,+44 20 7499 6996,07:00-23:00,3,4.6,90,Breakfast;Classic;Buzzing,https://upload.wikimedia.org/wikipedia/commons/thumb/e/e4/Shakespeare%27s_Birthplace_Stratford.jpg/800px-Shakespeare%27s_Birthplace_Stratford.jpg,null,
67,Sketch,Restaurant,9 Conduit Street,London,W1S 2XG,51.5126,-0.1413,https://sketch.london,+44 20 7659 4500,09:00-02:00,4,4.4,120,Instagrammable;Art;Unique,https://upload.wikimedia.org/wikipedia/commons/thumb/e/e4/Shakespeare%27s_Birthplace_Stratford.jpg/800px-Shakespeare%27s_Birthplace_Stratford.jpg,null,
68,Gymkhana,Restaurant,42 Albemarle Street,London,W1S 4JH,51.5085,-0.1412,https://gymkhanalondon.com,+44 20 7499 8010,12:00-22:30,4,4.6,120,Indian;Michelin;Spicy,https://upload.wikimedia.org/wikipedia/commons/thumb/e/e4/Shakespeare%27s_Birthplace_Stratford.jpg/800px-Shakespeare%27s_Birthplace_Stratford.jpg,null,
69,Dishoom Covent Garden,Restaurant,12 Upper St Martin's Ln,London,WC2H 9FB,51.5125,-0.127,https://www.dishoom.com,+44 20 7420 9320,08:00-23:00,2,4.7,90,Indian;Casual;Popular,https://upload.wikimedia.org/wikipedia/commons/thumb/e/e4/Shakespeare%27s_Birthplace_Stratford.jpg/800px-Shakespeare%27s_Birthplace_Stratford.jpg,null,
70,Hoppers Soho,Restaurant,49 Frith Street,London,W1D 4SG,51.5133,-0.1315,https://www.hopperslondon.com,,12:00-22:30,2,4.6,60,Sri Lankan;Soho;Spicy,https://upload.wikimedia.org/wikipedia/commons/thumb/e/e4/Shakespeare%27s_Birthplace_Stratford.jpg/800px-Shakespeare%27s_Birthplace_Stratford.jpg,null,
71,Barrafina Dean Street,Restaurant,26-27 Dean Street,London,W1D 3LL,51.5135,-0.132,https://www.barrafina.co.uk,+44 20 7813 2555,12:00-23:00,3,4.7,75,Tapas;Counter;Spanish,https://upload.wikimedia.org/wikipedia/commons/thumb/e/e4/Shakespeare%27s_Birthplace_Stratford.jpg/800px-Shakespeare%27s_Birthplace_Stratford.jpg,null,
72,Gloria,Restaurant,54-56 Great Eastern St,London,EC2A 3QR,51.5238,-0.0825,https://www.bigmammagroup.com,,12:00-22:45,3,4.6,90,Italian;Vibe;Instagram,https://upload.wikimedia.org/wikipedia/commons/thumb/e/e4/Shakespeare%27s_Birthplace_Stratford.jpg/800px-Shakespeare%27s_Birthplace_Stratford.jpg,null,
73,Circolo Popolare,Restaurant,40-41 Rathbone Place,London,W1T 1HX,51.5173,-0.1345,https://www.bigmammagroup.com,,12:00-22:45,3,4.6,90,Italian;Decor;Pasta,https://upload.wikimedia.org/wikipedia/commons/thumb/e/e4/Shakespeare%27s_Birthplace_Stratford.jpg/800px-Shakespeare%27s_Birthplace_Stratford.jpg,null,
74,Miga,Restaurant,1 Mare Street,London,E8 4RP,51.5375,-0.055,https://miga.london,,17:00-22:30,3,4.8,90,Korean;Modern;Hackney,https://upload.wikimedia.org/wikipedia/commons/thumb/e/e4/Shakespeare%27s_Birthplace_Stratford.jpg/800px-Shakespeare%27s_Birthplace_Stratford.jpg,null,
75,Oma,Restaurant,3 Bedale Street,London,SE1 9AL,51.5052,-0.0905,https://oma.london,,12:00-23:00,3,4.5,90,Greek;Market;New,https://upload.wikimedia.org/wikipedia/commons/thumb/e/e4/Shakespeare%27s_Birthplace_Stratford.jpg/800px-Shakespeare%27s_Birthplace_Stratford.jpg,null,
76,Brat,Restaurant,4 Redchurch Street,London,E1 6JL,51.5236,-0.0765,https://bratrestaurant.com,,12:00-23:00,3,4.5,90,Basque;Grill;Shoreditch,https://upload.wikimedia.org/wikipedia/commons/thumb/e/e4/Shakespeare%27s_Birthplace_Stratford.jpg/800px-Shakespeare%27s_Birthplace_Stratford.jpg,null,
77,St. JOHN,Restaurant,26 St John Street,London,EC1M 4AY,51.5205,-0.1005,https://stjohnrestaurant.com,+44 20 7251 0848,12:00-23:00,3,4.5,120,British;Nose-to-Tail;Iconic,https://upload.wikimedia.org/wikipedia/commons/thumb/e/e4/Shakespeare%27s_Birthplace_Stratford.jpg/800px-Shakespeare%27s_Birthplace_Stratford.jpg,null,
78,Lyle's,Restaurant,56 Shoreditch High St,London,E1 6JJ,51.524,-0.077,https://www.lyleslondon.com,+44 20 3011 5911,12:00-23:00,4,4.6,120,Modern British;Minimal;Foodie,https://upload.wikimedia.org/wikipedia/commons/thumb/e/e4/Shakespeare%27s_Birthplace_Stratford.jpg/800px-Shakespeare%27s_Birthplace_Stratford.jpg,null,
79,The Clove Club,Restaurant,380 Old Street,London,EC1V 9LT,51.5262,-0.0805,https://www.thecloveclub.com,+44 20 7729 6496,18:00-22:00,4,4.6,150,Fine Dining;Tasting;Top50,https://upload.wikimedia.org/wikipedia/commons/thumb/e/e4/Shakespeare%27s_Birthplace_Stratford.jpg/800px-Shakespeare%27s_Birthplace_Stratford.jpg,null,
80,Core by Clare Smyth,Restaurant,92 Kensington Park Rd,London,W11 2PN,51.512,-0.2045,https://www.corebyclaresmyth.com,+44 20 3937 5086,18:30-22:30,4,4.9,180,Michelin;Fine Dining;Notting Hill,https://upload.wikimedia.org/wikipedia/commons/thumb/e/e4/Shakespeare%27s_Birthplace_Stratford.jpg/800px-Shakespeare%27s_Birthplace_Stratford.jpg,null,
83,The Shard,Attraction,32 London Bridge St,London,SE1 9SG,51.5045,-0.0865,https://www.the-shard.com,+44 844 499 7111,10:00-22:00,4,4.6,60,Views;Skyscraper;Bar,https://upload.wikimedia.org/wikipedia/commons/thumb/e/e4/Shakespeare%27s_Birthplace_Stratford.jpg/800px-Shakespeare%27s_Birthplace_Stratford.jpg,null,
84,Buckingham Palace,Attraction,Westminster,London,SW1A 1AA,51.5014,-0.1419,https://www.rct.uk/visit/buckingham-palace,+44 303 123 7300,09:30-19:30,3,4.5,120,Royal;Palace;Changing Guard,https://upload.wikimedia.org/wikipedia/commons/thumb/e/e4/Shakespeare%27s_Birthplace_Stratford.jpg/800px-Shakespeare%27s_Birthplace_Stratford.jpg,null,
85,Westminster Abbey,Attraction,20 Deans Yd,London,SW1P 3PA,51.4993,-0.1273,https://www.westminster-abbey.org,+44 20 7222 5152,09:30-15:30,3,4.6,90,History;Royal;Church,https://upload.wikimedia.org/wikipedia/commons/thumb/e/e4/Shakespeare%27s_Birthplace_Stratford.jpg/800px-Shakespeare%27s_Birthplace_Stratford.jpg,null,
86,St Paul's Cathedral,Attraction,St. Paul's Churchyard,London,EC4M 8AD,51.5138,-0.0984,https://www.stpauls.co.uk,+44 20 7246 8350,08:30-16:30,3,4.7,90,Architecture;Views;Church,https://upload.wikimedia.org/wikipedia/commons/thumb/e/e4/Shakespeare%27s_Birthplace_Stratford.jpg/800px-Shakespeare%27s_Birthplace_Stratford.jpg,null,
87,Tower Bridge,Attraction,Tower Bridge Road,London,SE1 2UP,51.5055,-0.0754,https://www.towerbridge.org.uk,+44 20 7403 3761,09:30-18:00,2,4.7,60,Iconic;Views;River,https://upload.wikimedia.org/wikipedia/commons/thumb/e/e4/Shakespeare%27s_Birthplace_Stratford.jpg/800px-Shakespeare%27s_Birthplace_Stratford.jpg,null,
88,Kew Gardens,Attraction,Kew,London,TW9 3AE,51.4787,-0.2956,https://www.kew.org,+44 20 8332 5655,10:00-19:00,3,4.8,180,Nature;Gardens;Walk,https://upload.wikimedia.org/wikipedia/commons/thumb/e/e4/Shakespeare%27s_Birthplace_Stratford.jpg/800px-Shakespeare%27s_Birthplace_Stratford.jpg,null,
89,ZSL London Zoo,Attraction,Regent's Park,London,NW1 4RY,51.5353,-0.1534,https://www.zsl.org/zsl-london-zoo,+44 344 225 1826,10:00-18:00,4,4.4,240,Animals;Family;Outdoor,https://upload.wikimedia.org/wikipedia/commons/thumb/e/e4/Shakespeare%27s_Birthplace_Stratford.jpg/800px-Shakespeare%27s_Birthplace_Stratford.jpg,null,
90,Madame Tussauds,Attraction,Marylebone Road,London,NW1 5LR,51.523,-0.1543,https://www.madametussauds.com/london,+44 871 894 3000,10:00-16:00,4,4.3,120,Wax;Celebs;Family,https://upload.wikimedia.org/wikipedia/commons/thumb/e/e4/Shakespeare%27s_Birthplace_Stratford.jpg/800px-Shakespeare%27s_Birthplace_Stratford.jpg,null,
91,London Dungeon,Attraction,County Hall,London,SE1 7PB,51.5033,-0.1195,https://www.thedungeons.com/london,+44 20 7654 0809,10:00-17:00,4,4.4,90,Scary;History;Interactive,https://upload.wikimedia.org/wikipedia/commons/thumb/e/e4/Shakespeare%27s_Birthplace_Stratford.jpg/800px-Shakespeare%27s_Birthplace_Stratford.jpg,null,
92,SEA LIFE London,Attraction,County Hall,London,SE1 7PB,51.5033,-0.1195,https://www.visitsealife.com/london,+44 20 7967 8025,10:00-17:00,4,4.3,90,Fish;Family;Aquarium,https://upload.wikimedia.org/wikipedia/commons/thumb/e/e4/Shakespeare%27s_Birthplace_Stratford.jpg/800px-Shakespeare%27s_Birthplace_Stratford.jpg,null,
93,Hampton Court Palace,Attraction,Hampton Court Way,London,KT8 9AU,51.4036,-0.3378,https://www.hrp.org.uk/hampton-court-palace,+44 20 3166 6000,10:00-17:30,3,4.8,180,History;Tudor;Gardens,https://upload.wikimedia.org/wikipedia/commons/thumb/e/e4/Shakespeare%27s_Birthplace_Stratford.jpg/800px-Shakespeare%27s_Birthplace_Stratford.jpg,null,
94,Kensington Palace,Attraction,Kensington Gardens,London,W8 4PX,51.505,-0.1877,https://www.hrp.org.uk/kensington-palace,+44 20 3166 6000,10:00-18:00,3,4.4,90,Royal;History;Park,https://upload.wikimedia.org/wikipedia/commons/thumb/e/e4/Shakespeare%27s_Birthplace_Stratford.jpg/800px-Shakespeare%27s_Birthplace_Stratford.jpg,null,
95,Royal Albert Hall,Attraction,Kensington Gore,London,SW7 2AP,51.5009,-0.1774,https://www.royalalberthall.com,+44 20 7589 8212,09:00-17:00,3,4.7,60,Music;Architecture;Iconic,https://upload.wikimedia.org/wikipedia/commons/thumb/e/e4/Shakespeare%27s_Birthplace_Stratford.jpg/800px-Shakespeare%27s_Birthplace_Stratford.jpg,null,
98,Covent Garden Market,Market,The Market,London,WC2E 8RF,51.5117,-0.1233,https://www.coventgarden.london,,10:00-20:00,1,4.6,60,Shopping;Street Performers;Food,https://upload.wikimedia.org/wikipedia/commons/thumb/e/e4/Shakespeare%27s_Birthplace_Stratford.jpg/800px-Shakespeare%27s_Birthplace_Stratford.jpg,null,
99,Camden Market,Market,Camden Lock Place,London,NW1 8AF,51.5416,-0.1463,https://www.camdenmarket.com,+44 20 7485 5511,10:00-18:00,2,4.6,120,Alternative;Food;Shopping,https://upload.wikimedia.org/wikipedia/commons/thumb/e/e4/Shakespeare%27s_Birthplace_Stratford.jpg/800px-Shakespeare%27s_Birthplace_Stratford.jpg,null,
100,Portobello Road Market,Market,Portobello Road,London,W11 1LA,51.5155,-0.2045,http://www.portobelloroad.co.uk,,09:00-19:00,1,4.5,120,Antiques;Notting Hill;Saturday,https://upload.wikimedia.org/wikipedia/commons/thumb/e/e4/Shakespeare%27s_Birthplace_Stratford.jpg/800px-Shakespeare%27s_Birthplace_Stratford.jpg,null,
103,Science Museum,Museum,Exhibition Road,London,SW7 2DD,51.4975,-0.1747,https://www.sciencemuseum.org.uk,+44 330 058 0058,10:00-18:00,1,4.5,120,Science;Kids;Interactive,https://upload.wikimedia.org/wikipedia/commons/thumb/e/e4/Shakespeare%27s_Birthplace_Stratford.jpg/800px-Shakespeare%27s_Birthplace_Stratford.jpg,null,
104,Victoria and Albert Museum,Museum,Cromwell Road,London,SW7 2RL,51.4966,-0.1722,https://www.vam.ac.uk,+44 20 7942 2000,10:00-17:45,1,4.8,150,Art;Design;Fashion,https://upload.wikimedia.org/wikipedia/commons/thumb/e/e4/Shakespeare%27s_Birthplace_Stratford.jpg/800px-Shakespeare%27s_Birthplace_Stratford.jpg,null,
106,Tate Britain,Museum,Millbank,London,SW1P 4RG,51.4911,-0.1278,https://www.tate.org.uk/visit/tate-britain,+44 20 7887 8888,10:00-18:00,1,4.6,90,British Art;Turner;Free,https://upload.wikimedia.org/wikipedia/commons/thumb/e/e4/Shakespeare%27s_Birthplace_Stratford.jpg/800px-Shakespeare%27s_Birthplace_Stratford.jpg,null,
107,National Gallery,Museum,Trafalgar Square,London,WC2N 5DN,51.5089,-0.1283,https://www.nationalgallery.org.uk,+44 20 7747 2885,10:00-18:00,1,4.8,120,Art;Paintings;Free,https://upload.wikimedia.org/wikipedia/commons/thumb/e/e4/Shakespeare%27s_Birthplace_Stratford.jpg/800px-Shakespeare%27s_Birthplace_Stratford.jpg,null,
108,National Portrait Gallery,Museum,St Martin's Place,London,WC2H 0HE,51.5094,-0.1281,https://www.npg.org.uk,+44 20 7306 0055,10:30-18:00,1,4.6,90,Portraits;History;Art,https://upload.wikimedia.org/wikipedia/commons/thumb/e/e4/Shakespeare%27s_Birthplace_Stratford.jpg/800px-Shakespeare%27s_Birthplace_Stratford.jpg,null,
109,Imperial War Museum,Museum,Lambeth Road,London,SE1 6HZ,51.4958,-0.1086,https://www.iwm.org.uk,+44 20 7416 5000,10:00-18:00,1,4.7,120,War;History;Tanks,https://upload.wikimedia.org/wikipedia/commons/thumb/e/e4/Shakespeare%27s_Birthplace_Stratford.jpg/800px-Shakespeare%27s_Birthplace_Stratford.jpg,null,
110,Churchill War Rooms,Museum,Clive Steps,London,SW1A 2AQ,51.5022,-0.1292,https://www.iwm.org.uk/visits/churchill-war-rooms,+44 20 7930 6961,09:30-18:00,3,4.8,90,History;WWII;Bunker,https://upload.wikimedia.org/wikipedia/commons/thumb/e/e4/Shakespeare%27s_Birthplace_Stratford.jpg/800px-Shakespeare%27s_Birthplace_Stratford.jpg,null,
111,London Transport Museum,Museum,Covent Garden,London,WC2E 7BB,51.5122,-0.1227,https://www.ltmuseum.co.uk,+44 343 222 5000,10:00-18:00,3,4.6,90,Transport;Kids;Buses,https://upload.wikimedia.org/wikipedia/commons/thumb/e/e4/Shakespeare%27s_Birthplace_Stratford.jpg/800px-Shakespeare%27s_Birthplace_Stratford.jpg,null,
112,Royal Museums Greenwich,Museum,Romney Road,London,SE10 9NF,51.4812,-0.0052,https://www.rmg.co.uk,+44 20 8858 4422,10:00-17:00,2,4.7,120,Maritime;Greenwich;History,https://upload.wikimedia.org/wikipedia/commons/thumb/e/e4/Shakespeare%27s_Birthplace_Stratford.jpg/800px-Shakespeare%27s_Birthplace_Stratford.jpg,null,
113,Design Museum,Museum,Kensington High St,London,W8 6AG,51.4996,-0.2008,https://designmuseum.org,+44 20 3862 5900,10:00-18:00,2,4.4,90,Design;Modern;Architecture,https://upload.wikimedia.org/wikipedia/commons/thumb/e/e4/Shakespeare%27s_Birthplace_Stratford.jpg/800px-Shakespeare%27s_Birthplace_Stratford.jpg,null,
114,Saatchi Gallery,Museum,Duke of York's HQ,London,SW3 4RY,51.4907,-0.1588,https://www.saatchigallery.com,+44 20 7811 3070,10:00-18:00,2,4.4,60,Contemporary Art;Chelsea;Exhibitions,https://upload.wikimedia.org/wikipedia/commons/thumb/e/e4/Shakespeare%27s_Birthplace_Stratford.jpg/800px-Shakespeare%27s_Birthplace_Stratford.jpg,null,
115,Hyde Park,Park,Westminster,London,W2 2UH,51.5073,-0.1657,https://www.royalparks.org.uk,,05:00-00:00,1,4.7,120,Park;Boating;Walk,https://upload.wikimedia.org/wikipedia/commons/thumb/e/e4/Shakespeare%27s_Birthplace_Stratford.jpg/800px-Shakespeare%27s_Birthplace_Stratford.jpg,null,
116,Regent's Park,Park,Camden,London,NW1 4NR,51.5313,-0.1569,https://www.royalparks.org.uk,,05:00-21:30,1,4.7,90,Park;Roses;Gardens,https://upload.wikimedia.org/wikipedia/commons/thumb/e/e4/Shakespeare%27s_Birthplace_Stratford.jpg/800px-Shakespeare%27s_Birthplace_Stratford.jpg,null,
117,St James's Park,Park,The Mall,London,SW1A 2BJ,51.5025,-0.1348,https://www.royalparks.org.uk,,05:00-00:00,1,4.8,60,Park;Palace;Pelicans,https://upload.wikimedia.org/wikipedia/commons/thumb/e/e4/Shakespeare%27s_Birthplace_Stratford.jpg/800px-Shakespeare%27s_Birthplace_Stratford.jpg,null,
118,Greenwich Park,Park,Greenwich,London,SE10 8QY,51.4769,0.0005,https://www.royalparks.org.uk,,06:00-21:00,1,4.8,90,Park;Views;Observatory,https://upload.wikimedia.org/wikipedia/commons/thumb/e/e4/Shakespeare%27s_Birthplace_Stratford.jpg/800px-Shakespeare%27s_Birthplace_Stratford.jpg,null,
119,Richmond Park,Park,Richmond,London,TW10 5HS,51.4426,-0.28,https://www.royalparks.org.uk,,07:00-20:30,1,4.8,180,Deer;Nature;Wild,https://upload.wikimedia.org/wikipedia/commons/thumb/e/e4/Shakespeare%27s_Birthplace_Stratford.jpg/800px-Shakespeare%27s_Birthplace_Stratford.jpg,null,
120,Shakespeare's Globe,Theatre,21 New Globe Walk,London,SE1 9DT,51.5081,-0.0972,https://www.shakespearesglobe.com,+44 20 7902 1400,Varies,3,4.7,150,Theatre;Shakespeare;OpenAir,https://upload.wikimedia.org/wikipedia/commons/thumb/e/e4/Shakespeare%27s_Birthplace_Stratford.jpg/800px-Shakespeare%27s_Birthplace_Stratford.jpg,null,
121,Royal Opera House,Theatre,Bow Street,London,WC2E 9DD,51.5129,-0.1221,https://www.roh.org.uk,+44 20 7304 4000,Varies,4,4.7,180,Opera;Ballet;CoventGarden,https://upload.wikimedia.org/wikipedia/commons/thumb/e/e4/Shakespeare%27s_Birthplace_Stratford.jpg/800px-Shakespeare%27s_Birthplace_Stratford.jpg,null,
122,National Theatre,Theatre,Upper Ground,London,SE1 9PX,51.5069,-0.1141,https://www.nationaltheatre.org.uk,+44 20 7452 3000,Varies,3,4.7,150,Theatre;Southbank;Culture,https://upload.wikimedia.org/wikipedia/commons/thumb/e/e4/Shakespeare%27s_Birthplace_Stratford.jpg/800px-Shakespeare%27s_Birthplace_Stratford.jpg,null,
123,The Old Vic,Theatre,The Cut,London,SE1 8NB,51.502,-0.1095,https://www.oldvictheatre.com,+44 344 871 7628,Varies,3,4.6,150,Theatre;Historic;Waterloo,https://upload.wikimedia.org/wikipedia/commons/thumb/e/e4/Shakespeare%27s_Birthplace_Stratford.jpg/800px-Shakespeare%27s_Birthplace_Stratford.jpg,null,
124,London Palladium,Theatre,Argyll Street,London,W1F 7TF,51.5145,-0.1408,https://lwtheatres.co.uk,,Varies,3,4.6,150,Theatre;Musical;WestEnd,https://upload.wikimedia.org/wikipedia/commons/thumb/e/e4/Shakespeare%27s_Birthplace_Stratford.jpg/800px-Shakespeare%27s_Birthplace_Stratford.jpg,null,
125,Harrods,Shopping,Brompton Road,London,SW1X 7XL,51.4994,-0.1632,https://www.harrods.com,+44 20 7730 1234,10:00-21:00,4,4.5,120,Luxury;Shopping;FoodHall,https://upload.wikimedia.org/wikipedia/commons/thumb/e/e4/Shakespeare%27s_Birthplace_Stratford.jpg/800px-Shakespeare%27s_Birthplace_Stratford.jpg,null,
126,Selfridges,Shopping,400 Oxford Street,London,W1A 1AB,51.5144,-0.1528,https://www.selfridges.com,+44 800 123 400,10:00-22:00,3,4.6,120,Shopping;Fashion;OxfordSt,https://upload.wikimedia.org/wikipedia/commons/thumb/e/e4/Shakespeare%27s_Birthplace_Stratford.jpg/800px-Shakespeare%27s_Birthplace_Stratford.jpg,null,
127,Liberty London,Shopping,Regent Street,London,W1B 5AH,51.5142,-0.1396,https://www.libertylondon.com,+44 20 7734 1234,10:00-20:00,3,4.7,60,Tudor;Fabric;Luxury,https://upload.wikimedia.org/wikipedia/commons/thumb/e/e4/Shakespeare%27s_Birthplace_Stratford.jpg/800px-Shakespeare%27s_Birthplace_Stratford.jpg,null,
128,Fortnum & Mason,Shopping,181 Piccadilly,London,W1A 1ER,51.5083,-0.1384,https://www.fortnumandmason.com,+44 20 7734 8040,10:00-20:00,4,4.6,60,Tea;Gifts;Royal,https://upload.wikimedia.org/wikipedia/commons/thumb/e/e4/Shakespeare%27s_Birthplace_Stratford.jpg/800px-Shakespeare%27s_Birthplace_Stratford.jpg,null,
129,Twist Museum,Museum,248 Oxford Street,London,W1C 1NY,51.5143,-0.15,https://twistmuseum.com,,10:00-20:00,3,4.5,60,Illusions;Interactive;Fun,https://upload.wikimedia.org/wikipedia/commons/thumb/e/e4/Shakespeare%27s_Birthplace_Stratford.jpg/800px-Shakespeare%27s_Birthplace_Stratford.jpg,null,
130,ABBA Voyage,Attraction,Pudding Mill Lane,London,E15 2RU,51.5323,-0.0104,https://abbavoyage.com,,Varies,4,4.9,120,Music;Concert;Unique,https://upload.wikimedia.org/wikipedia/commons/thumb/e/e4/Shakespeare%27s_Birthplace_Stratford.jpg/800px-Shakespeare%27s_Birthplace_Stratford.jpg,null,
131,Cutty Sark,Attraction,King William Walk,London,SE10 9HT,51.4828,-0.0096,https://www.rmg.co.uk/cutty-sark,+44 20 8858 4422,10:00-17:00,3,4.6,60,Ship;History;Greenwich,https://upload.wikimedia.org/wikipedia/commons/thumb/e/e4/Shakespeare%27s_Birthplace_Stratford.jpg/800px-Shakespeare%27s_Birthplace_Stratford.jpg,null,
132,O2 Arena,Music Venue,Peninsula Square,London,SE10 0DX,51.503,0.0032,https://www.theo2.co.uk,+44 20 8463 2000,Varies,3,4.5,180,Concerts;Entertainment;Dome,https://upload.wikimedia.org/wikipedia/commons/thumb/e/e4/Shakespeare%27s_Birthplace_Stratford.jpg/800px-Shakespeare%27s_Birthplace_Stratford.jpg,null,
133,Wembley Stadium,Sport Venue,Wembley,London,HA9 0WS,51.556,-0.2796,https://www.wembleystadium.com,+44 800 169 2007,Varies,3,4.6,180,Football;Sports;Iconic,https://upload.wikimedia.org/wikipedia/commons/thumb/e/e4/Shakespeare%27s_Birthplace_Stratford.jpg/800px-Shakespeare%27s_Birthplace_Stratford.jpg,null,
134,Emirates Stadium,Sport Venue,Hornsey Road,London,N7 7AJ,51.5549,-0.1084,https://www.arsenal.com,+44 20 7619 5000,Varies,3,4.6,120,Football;Arsenal;Tour,https://upload.wikimedia.org/wikipedia/commons/thumb/e/e4/Shakespeare%27s_Birthplace_Stratford.jpg/800px-Shakespeare%27s_Birthplace_Stratford.jpg,null,
135,Seven Dials Market,Food,Earlham Street,London,WC2H 9LX,51.5134,-0.1265,https://www.sevendialsmarket.com,,11:00-22:00,2,4.5,60,FoodHall;CoventGarden;Lunch,https://upload.wikimedia.org/wikipedia/commons/thumb/e/e4/Shakespeare%27s_Birthplace_Stratford.jpg/800px-Shakespeare%27s_Birthplace_Stratford.jpg,null,
136,King's College Chapel,Attraction,King's Parade,Cambridge,CB2 1ST,52.2047,0.1165,https://www.kings.cam.ac.uk/chapel,+44 1223 331100,09:30-15:30,3,4.7,60,History;Architecture;Iconic,https://upload.wikimedia.org/wikipedia/commons/thumb/c/c2/KingsCollegeChapelWest.jpg/800px-KingsCollegeChapelWest.jpg,Masterpiece of English Gothic architecture and home to the famous choir.,
137,The Fitzwilliam Museum,Museum,Trumpington Street,Cambridge,CB2 1RB,52.2003,0.1197,https://www.fitzmuseum.cam.ac.uk,+44 1223 332900,10:00-17:00,1,4.7,120,Art;History;Free,https://upload.wikimedia.org/wikipedia/commons/thumb/1/13/Fitzwilliam_Museum_Exterior_2010.jpg/800px-Fitzwilliam_Museum_Exterior_2010.jpg,The art and antiquities museum of the University of Cambridge.,
138,Cambridge Botanic Garden,Nature,1 Brookside,Cambridge,CB2 1JE,52.1936,0.1287,https://www.botanic.cam.ac.uk,+44 1223 336265,10:00-18:00,3,4.8,120,Nature;Gardens;Walk,https://upload.wikimedia.org/wikipedia/commons/thumb/b/b3/Cambridge_University_Botanic_Garden_Glasshouse.jpg/800px-Cambridge_University_Botanic_Garden_Glasshouse.jpg,Heritage-listed garden maintaining a collection of 8000 plant species.,
139,The Eagle,Pub,8 Benet Street,Cambridge,CB2 3QN,52.204,0.1189,https://www.greeneking-pubs.co.uk,+44 1223 505020,11:00-23:00,2,4.4,60,History;Pub;DNA,https://upload.wikimedia.org/wikipedia/commons/thumb/6/69/The_Eagle_Pub_Cambridge.jpg/800px-The_Eagle_Pub_Cambridge.jpg,Historic pub where Watson and Crick announced the discovery of DNA.,
140,The Varsity Hotel & Spa,Hotel,24 Thompsons Lane,Cambridge,CB5 8AQ,52.2109,0.117,https://www.thevarsityhotel.co.uk,+44 1223 306030,24-Jul,4,4.5,720,Luxury;Views;Spa,https://upload.wikimedia.org/wikipedia/commons/thumb/5/5e/Cambridge_Varsity_Hotel.jpg/800px-Cambridge_Varsity_Hotel.jpg,Boutique hotel with a spectacular rooftop bar overlooking the city.,
141,River Bar Steakhouse,Restaurant,Quayside,Cambridge,CB5 8AQ,52.211,0.1172,https://riverbarsteakhouse.com,+44 1223 307030,12:00-22:00,3,4.5,90,Food;Steak;River,https://upload.wikimedia.org/wikipedia/commons/thumb/a/a3/Cambridge_Punting.jpg/800px-Cambridge_Punting.jpg,Premium steakhouse located in a converted warehouse by the river.,
142,Bodleian Library,Attraction,Broad Street,Oxford,OX1 3BG,51.7539,-1.2551,https://www.bodleian.ox.ac.uk,+44 1865 277094,09:00-17:00,3,4.8,90,History;Harry Potter;Books,https://upload.wikimedia.org/wikipedia/commons/thumb/2/22/Bodleian_Library_Oxford.jpg/800px-Bodleian_Library_Oxford.jpg,One of the oldest libraries in Europe with over 13 million items.,
143,Ashmolean Museum,Museum,Beaumont Street,Oxford,OX1 2PH,51.7554,-1.2602,https://www.ashmolean.org,+44 1865 278000,10:00-17:00,1,4.7,150,Art;Archaeology;Free,https://upload.wikimedia.org/wikipedia/commons/thumb/4/4a/Ashmolean_Museum_Entrance.jpg/800px-Ashmolean_Museum_Entrance.jpg,"Britain's first public museum, founded in 1683.",
144,Oxford Castle & Prison,Attraction,44-46 Oxford Castle,Oxford,OX1 1AY,51.7516,-1.2625,https://www.oxfordcastleandprison.co.uk,+44 1865 260666,10:00-17:30,3,4.4,90,History;Tours;Views,https://upload.wikimedia.org/wikipedia/commons/thumb/f/f3/Oxford_Castle_Motte.jpg/800px-Oxford_Castle_Motte.jpg,Partly ruined Norman castle with guided tours of the prison cells.,
145,The Turf Tavern,Pub,4-5 Bath Place,Oxford,OX1 3SU,51.7547,-1.2536,https://www.greeneking-pubs.co.uk,+44 1865 243235,11:00-23:00,2,4.5,90,Hidden Gem;Ale;History,https://upload.wikimedia.org/wikipedia/commons/thumb/c/c4/Turf_Tavern_Oxford.jpg/800px-Turf_Tavern_Oxford.jpg,Famous hidden pub frequented by literary and political giants.,
146,The Grand Cafe,Cafe,84 High Street,Oxford,OX1 4BG,51.7523,-1.2518,https://www.thegrandcafe.co.uk,+44 1865 204463,09:00-18:30,3,4.2,60,Tea;History;Elegant,https://upload.wikimedia.org/wikipedia/commons/thumb/9/9e/Grand_Cafe_Oxford.jpg/800px-Grand_Cafe_Oxford.jpg,"The site of the first coffee house in England, established in 1650.",
147,Malmaison Oxford,Hotel,Oxford Castle,Oxford,OX1 1AY,51.7514,-1.2628,https://www.malmaison.com,+44 1865 689944,24-Jul,4,4.5,720,Unique;Luxury;Prison,https://upload.wikimedia.org/wikipedia/commons/thumb/8/87/Malmaison_Oxford.jpg/800px-Malmaison_Oxford.jpg,Boutique hotel converted from a Victorian prison.,
148,The Roman Baths,History,Abbey Church Yard,Bath,BA1 1LZ,51.3809,-2.3595,https://www.romanbaths.co.uk,+44 1225 477785,09:00-18:00,4,4.7,120,History;Must-See;Romans,https://upload.wikimedia.org/wikipedia/commons/thumb/d/de/Roman_Baths_in_Bath_SPA.jpg/800px-Roman_Baths_in_Bath_SPA.jpg,Well-preserved Roman site for public bathing.,
149,Bath Abbey,Attraction,Orange Grove,Bath,BA1 1LT,51.3814,-2.3589,https://www.bathabbey.org,+44 1225 422462,10:00-17:30,2,4.6,45,Religion;Architecture;Views,https://upload.wikimedia.org/wikipedia/commons/thumb/1/18/Bath_Abbey_West_Front.jpg/800px-Bath_Abbey_West_Front.jpg,Parish church known for its fan vaulting and tower tours.,
150,The Royal Crescent,Attraction,Royal Crescent,Bath,BA1 2LS,51.3872,-2.3686,https://no1royalcrescent.org.uk,,24-Jul,1,4.7,30,Architecture;Walk;Bridgerton,https://upload.wikimedia.org/wikipedia/commons/thumb/9/90/Royal_Crescent_Bath.jpg/800px-Royal_Crescent_Bath.jpg,A row of 30 terraced houses laid out in a sweeping crescent.,
151,Thermae Bath Spa,Spa,The Hetling Pump Room,Bath,BA1 1SJ,51.3803,-2.3611,https://www.thermaebathspa.com,+44 1225 331234,09:00-21:30,4,4.4,120,Relax;Pool;Views,https://upload.wikimedia.org/wikipedia/commons/thumb/f/f6/Thermae_Bath_Spa_Rooftop_Pool.jpg/800px-Thermae_Bath_Spa_Rooftop_Pool.jpg,Britain's only natural thermal spa with a rooftop pool.,
153,The Gainsborough,Hotel,Beau Street,Bath,BA1 1QY,51.38,-2.3605,https://www.thegainsboroughbathspa.co.uk,+44 1225 358888,24-Jul,4,4.6,720,Luxury;Spa;Hotel,https://upload.wikimedia.org/wikipedia/commons/thumb/a/a2/Gainsborough_Hotel_Bath.jpg/800px-Gainsborough_Hotel_Bath.jpg,5-star hotel with exclusive access to natural thermal waters.,
154,Cadbury World,Attraction,Linden Road,Birmingham,B30 1JR,52.4299,-1.9324,https://www.cadburyworld.co.uk,+44 121 393 6004,09:30-16:30,4,4.4,180,Family;Chocolate;Fun,https://upload.wikimedia.org/wikipedia/commons/thumb/f/f3/Cadbury_World_Entrance.jpg/800px-Cadbury_World_Entrance.jpg,Visitor attraction created by the Cadbury chocolate company.,
155,National SEA LIFE Centre,Attraction,The Water's Edge,Birmingham,B1 2HL,52.4792,-1.9161,https://www.visitsealife.com,+44 121 643 6777,10:00-16:00,3,4.4,120,Family;Animals;Indoor,https://upload.wikimedia.org/wikipedia/commons/thumb/5/52/Sea_Life_Centre_Birmingham.jpg/800px-Sea_Life_Centre_Birmingham.jpg,Aquarium housing over 2000 creatures including sea otters.,
156,Birmingham Museum & Art Gallery,Museum,Chamberlain Square,Birmingham,B3 3DH,52.4802,-1.9038,https://www.birminghammuseums.org.uk,+44 121 348 8000,10:00-17:00,1,4.6,120,Art;History;Culture,https://upload.wikimedia.org/wikipedia/commons/thumb/8/87/Birmingham_Museum_and_Art_Gallery.jpg/800px-Birmingham_Museum_and_Art_Gallery.jpg,Museum exhibiting pre-Raphaelite art and the Staffordshire Hoard.,
157,Library of Birmingham,Attraction,Centenary Square,Birmingham,B1 2ND,52.4795,-1.9088,https://www.birmingham.gov.uk,+44 121 242 4242,11:00-19:00,1,4.5,60,Modern;Views;Architecture,https://upload.wikimedia.org/wikipedia/commons/thumb/d/d1/Library_of_Birmingham_Exterior.jpg/800px-Library_of_Birmingham_Exterior.jpg,Postmodern library with rooftop gardens and panoramic views.,
158,Adam's Restaurant,Restaurant,16 Waterloo Street,Birmingham,B2 5UG,52.4805,-1.8997,https://www.adamsrestaurant.co.uk,+44 121 643 3745,12:00-13:30,4,4.9,120,Michelin;Fine Dining;Modern,https://upload.wikimedia.org/wikipedia/commons/thumb/e/e4/Birmingham_Council_House.jpg/800px-Birmingham_Council_House.jpg,Contemporary British fine dining in a stylish setting.,
159,The Grand Hotel,Hotel,Colmore Row,Birmingham,B3 2DA,52.4811,-1.8988,https://www.thegrandhotelbirmingham.co.uk,+44 121 827 9600,24-Jul,4,4.7,720,Luxury;History;Central,https://upload.wikimedia.org/wikipedia/commons/thumb/1/15/Grand_Hotel_Birmingham.jpg/800px-Grand_Hotel_Birmingham.jpg,Landmark Victorian hotel blending old-world luxury with modern style.,
160,National Space Centre,Museum,Exploration Drive,Leicester,LE4 5NS,52.6536,-1.1332,https://spacecentre.co.uk,+44 116 261 0261,10:00-16:00,3,4.6,180,Space;Science;Family,https://upload.wikimedia.org/wikipedia/commons/thumb/4/4d/National_Space_Centre%2C_Leicester.jpg/960px-National_Space_Centre%2C_Leicester.jpg,Museum and educational resource covering the fields of space science.,
161,King Richard III Visitor Centre,Attraction,4A St Martin's,Leicester,LE1 5DB,52.6346,-1.1352,https://kriii.com,+44 116 229 4132,10:00-16:00,3,4.5,90,History;Royal;Interactive,https://upload.wikimedia.org/wikipedia/commons/thumb/2/2a/Dynasty_Death_and_Discovery%2C_Richard_III_museum_entrance.png/960px-Dynasty_Death_and_Discovery%2C_Richard_III_museum_entrance.png,"Exhibition telling the story of the life, death, and discovery of Richard III.",
162,Leicester Cathedral,History,Peacock Lane,Leicester,LE1 5PZ,52.6349,-1.1362,https://leicestercathedral.org,+44 116 261 5200,08:00-18:00,1,4.6,45,Religion;History;Tomb,https://upload.wikimedia.org/wikipedia/commons/thumb/1/10/Leicester_Cathedral_south_facade.jpg/500px-Leicester_Cathedral_south_facade.jpg,The final resting place of King Richard III.,
163,Bradgate Park,Nature,Newtown Linford,Leicester,LE6 0HE,52.6862,-1.2173,https://www.bradgatepark.org,+44 116 236 2713,07:45-19:00,1,4.8,120,Nature;Deer;Walking,https://upload.wikimedia.org/wikipedia/commons/thumb/6/67/Bradgate_park_rocks.jpg/500px-Bradgate_park_rocks.jpg,Medieval deer park with rocky outcrops and historic ruins.,
164,Kayal,Restaurant,153 Granby Street,Leicester,LE1 6FE,52.6322,-1.1275,https://www.kayalrestaurant.com,+44 116 255 4667,12:00-23:00,2,4.5,90,Food;Indian;Kerala,https://upload.wikimedia.org/wikipedia/commons/thumb/a/a3/Granby_Street_Leicester.jpg/800px-Granby_Street_Leicester.jpg,Authentic Keralan seafood and cuisine in a relaxed setting.,
165,St Martins Lodge,Hotel,2 Peacock Lane,Leicester,LE1 5PZ,52.6348,-1.1358,https://www.stmartinslodge.co.uk,+44 116 261 5200,24-Jul,3,4.8,0,Boutique;History;Central,https://upload.wikimedia.org/wikipedia/commons/thumb/f/f3/Leicester_Cathedral_Exterior.jpg/800px-Leicester_Cathedral_Exterior.jpg,Luxury accommodation located opposite the Cathedral.,
166,Old Trafford,Attraction,Sir Matt Busby Way,Manchester,M16 0RA,53.4631,-2.2913,https://www.manutd.com,+44 161 868 8000,09:30-16:00,3,4.6,120,Sports;Football;Iconic,https://upload.wikimedia.org/wikipedia/commons/thumb/3/33/Manchester_United_Old_Trafford.jpg/800px-Manchester_United_Old_Trafford.jpg,"The historic home of Manchester United Football Club, known as the Theatre of Dreams.",
167,John Rylands Library,Attraction,150 Deansgate,Manchester,M3 3EH,53.4801,-2.2476,https://www.library.manchester.ac.uk/rylands,+44 161 306 0555,10:00-17:00,1,4.8,60,Architecture;Harry Potter;Library,https://upload.wikimedia.org/wikipedia/commons/thumb/8/87/John_Rylands_Library_Manchester.jpg/800px-John_Rylands_Library_Manchester.jpg,A neo-Gothic masterpiece housing one of the world's finest collections of rare books.,
168,Science and Industry Museum,Museum,Liverpool Road,Manchester,M3 4FP,53.4771,-2.255,https://www.scienceandindustrymuseum.org.uk,+44 330 058 0058,10:00-17:00,1,4.5,120,Science;Industrial;Kids,https://upload.wikimedia.org/wikipedia/commons/thumb/c/c5/Museum_of_Science_and_Industry_Manchester.jpg/800px-Museum_of_Science_and_Industry_Manchester.jpg,Museum exploring Manchester's rich legacy of scientific and industrial innovations.,
169,The Ivy Spinningfields,Restaurant,The Pavilion,Manchester,M3 3GY,53.4802,-2.2514,https://theivymanchester.com,+44 161 503 3222,08:30-00:00,4,4.4,120,Dining;Luxury;Instagrammable,https://upload.wikimedia.org/wikipedia/commons/thumb/5/53/Spinningfields_Manchester.jpg/800px-Spinningfields_Manchester.jpg,Upscale dining with a roof garden in the heart of the business district.,
170,Dakota Manchester,Hotel,29 Ducie Street,Manchester,M1 2JL,53.4808,-2.2323,https://www.dakotahotels.co.uk,+44 161 674 9180,24-Jul,4,4.8,720,Hotel;Luxury;Romantic,https://upload.wikimedia.org/wikipedia/commons/thumb/9/98/Piccadilly_Basin_Manchester.jpg/800px-Piccadilly_Basin_Manchester.jpg,"Sophisticated luxury hotel known for its dark, stylish aesthetic and service.",
171,Clifton Suspension Bridge,Attraction,Bridge Road,Bristol,BS8 3PA,51.4549,-2.6278,https://cliftonbridge.org.uk,+44 117 974 4664,24-Jul,1,4.7,45,Views;Iconic;Engineering,https://upload.wikimedia.org/wikipedia/commons/thumb/0/03/Clifton_Suspension_Bridge_spanning_the_Avon_Gorge.jpg/800px-Clifton_Suspension_Bridge_spanning_the_Avon_Gorge.jpg,Brunel's iconic suspension bridge spanning the picturesque Avon Gorge.,
172,SS Great Britain,Museum,Great Western Dockyard,Bristol,BS1 6TY,51.4496,-2.6072,https://www.ssgreatbritain.org,+44 117 926 0680,10:00-17:00,3,4.8,150,History;Maritime;Family,https://upload.wikimedia.org/wikipedia/commons/thumb/9/90/SS_Great_Britain_Bristol.jpg/800px-SS_Great_Britain_Bristol.jpg,Museum ship that was the longest passenger ship in the world from 1845 to 1854.,
173,St Nicholas Market,Market,The Corn Exchange,Bristol,BS1 1JQ,51.4542,-2.5925,https://www.bristol.gov.uk,,09:30-17:00,1,4.6,60,Food;Shopping;Local,https://upload.wikimedia.org/wikipedia/commons/thumb/6/64/St_Nicholas_Market_Bristol.jpg/800px-St_Nicholas_Market_Bristol.jpg,Vibrant indoor market with a wide array of independent food stalls.,
174,Royal Armouries Museum,Museum,Armouries Drive,Leeds,LS10 1LT,53.7918,-1.5323,https://royalarmouries.org,+44 113 220 1999,10:00-17:00,1,4.7,120,History;Weapons;Free,https://upload.wikimedia.org/wikipedia/commons/thumb/b/b2/Royal_Armouries_Museum_Leeds.jpg/800px-Royal_Armouries_Museum_Leeds.jpg,National museum housing the national collection of arms and armour.,
175,Kirkstall Abbey,Attraction,Abbey Road,Leeds,LS5 3EH,53.8206,-1.6062,https://museumsandgalleries.leeds.gov.uk,+44 113 378 4079,10:00-16:00,1,4.6,60,Ruins;History;Park,https://upload.wikimedia.org/wikipedia/commons/thumb/9/93/Kirkstall_Abbey_Leeds.jpg/800px-Kirkstall_Abbey_Leeds.jpg,One of the most complete examples of a medieval Cistercian abbey in Britain.,
176,Harewood House,Attraction,Harewood,Leeds,LS17 9LG,53.8967,-1.5273,https://harewood.org,+44 113 218 1010,10:00-17:00,3,4.6,180,Stately Home;Gardens;Art,https://upload.wikimedia.org/wikipedia/commons/thumb/5/53/Harewood_House_South_Front.jpg/800px-Harewood_House_South_Front.jpg,18th-century country house with an exotic bird garden and Himalayan garden.,
177,Newcastle Castle,Attraction,The Black Gate,Newcastle,NE1 1RQ,54.9697,-1.6112,https://www.newcastlecastle.co.uk,+44 191 230 6300,10:00-17:00,2,4.5,60,History;Views;Fortress,https://upload.wikimedia.org/wikipedia/commons/thumb/1/18/Newcastle_Castle_Keep.jpg/800px-Newcastle_Castle_Keep.jpg,The medieval fortification that gave the city of Newcastle its name.,
178,The Alnwick Garden,Attraction,Denwick Lane,Northumberland,NE66 1YU,55.4136,-1.6985,https://www.alnwickgarden.com,+44 1665 511350,10:00-17:00,3,4.6,150,Gardens;Poison Garden;Family,https://upload.wikimedia.org/wikipedia/commons/thumb/5/5d/Alnwick_Garden_Cascade.jpg/800px-Alnwick_Garden_Cascade.jpg,Complex of formal gardens adjacent to Alnwick Castle featuring a Poison Garden.,
179,Hadrian's Wall (Housesteads),History,Hexham,Northumberland,NE47 6NN,55.0135,-2.3294,https://www.english-heritage.org.uk,+44 1434 344363,10:00-17:00,2,4.7,90,Romans;Hiking;Ruins,https://upload.wikimedia.org/wikipedia/commons/thumb/5/5e/Hadrians_Wall_Housesteads.jpg/800px-Hadrians_Wall_Housesteads.jpg,The most complete Roman fort on Hadrian's Wall with stunning views.,
180,Chatsworth House,Attraction,Bakewell,Derbyshire,DE45 1PP,53.2285,-1.6104,https://www.chatsworth.org,+44 1246 565300,10:00-17:00,4,4.8,240,Stately Home;Pride & Prejudice;Gardens,https://upload.wikimedia.org/wikipedia/commons/thumb/3/3e/Chatsworth_House_from_South_West.jpg/800px-Chatsworth_House_from_South_West.jpg,Magnificent stately home used as Pemberley in Pride & Prejudice.,
181,Alton Towers,Theme Park,Farley Lane,Staffordshire,ST10 4DB,52.9875,-1.8943,https://www.altontowers.com,+44 1538 704096,10:00-17:00,4,4.5,360,Thrills;Family;Coasters,https://upload.wikimedia.org/wikipedia/commons/thumb/d/d4/Alton_Towers_Gardens.jpg/800px-Alton_Towers_Gardens.jpg,The UK's largest theme park with world-class rollercoasters.,
182,Blackpool Pleasure Beach,Theme Park,525 Ocean Blvd,Blackpool,FY4 1EZ,53.7915,-3.056,https://www.blackpoolpleasurebeach.com,+44 871 222 1234,11:00-17:00,4,4.4,240,Seaside;Fun;Coasters,https://upload.wikimedia.org/wikipedia/commons/thumb/3/36/The_Big_One_Blackpool_Pleasure_Beach.jpg/800px-The_Big_One_Blackpool_Pleasure_Beach.jpg,Historic amusement park featuring 'The Big One' rollercoaster.,
183,Blackpool Tower,Attraction,Promenade,Blackpool,FY1 4BJ,53.8159,-3.0553,https://www.theblackpooltower.com,+44 1253 622242,10:00-17:00,3,4.5,90,Views;Iconic;Ballroom,https://upload.wikimedia.org/wikipedia/commons/thumb/a/a2/Blackpool_Tower_2016.jpg/800px-Blackpool_Tower_2016.jpg,"Iconic Victorian tower with a circus, dungeon, and famous ballroom.",
184,Canterbury Cathedral,History,The Precincts,Canterbury,CT1 2EH,51.2798,1.0828,https://www.canterbury-cathedral.org,+44 1227 762862,10:00-17:00,3,4.7,90,Religion;History;Pilgrimage,https://upload.wikimedia.org/wikipedia/commons/thumb/6/63/Canterbury_Cathedral_Exterior.jpg/800px-Canterbury_Cathedral_Exterior.jpg,One of the oldest and most famous Christian structures in England.,
185,White Cliffs of Dover,Nature,Upper Road,Dover,CT16 1HJ,51.1317,1.3468,https://www.nationaltrust.org.uk,,24-Jul,1,4.7,90,Hiking;Views;Iconic,https://upload.wikimedia.org/wikipedia/commons/thumb/3/33/White_Cliffs_of_Dover_02.jpg/800px-White_Cliffs_of_Dover_02.jpg,Iconic chalk cliffs facing France across the English Channel.,
186,Leeds Castle,Castle,Maidstone,Kent,ME17 1PL,51.2483,0.6293,https://www.leeds-castle.com,+44 1622 765400,10:00-16:30,4,4.6,180,History;Moat;Gardens,https://upload.wikimedia.org/wikipedia/commons/thumb/8/82/Leeds_Castle_Kent.jpg/800px-Leeds_Castle_Kent.jpg,"Picturesque castle rising from a moat, often called the loveliest in the world.",
187,Cheddar Gorge,Nature,Cheddar,Somerset,BS27 3QF,51.2816,-2.7667,https://www.cheddargorge.co.uk,,24-Jul,1,4.6,120,Hiking;Caves;Cheese,https://upload.wikimedia.org/wikipedia/commons/thumb/d/d4/Cheddar_Gorge_Somerset.jpg/800px-Cheddar_Gorge_Somerset.jpg,Britain's largest gorge with stunning cliffs and show caves.,
188,Wookey Hole Caves,Attraction,The Mill,Wells,BA5 1BB,51.2244,-2.6738,https://www.wookey.co.uk,+44 1749 672243,10:00-16:00,3,4.4,120,Caves;Family;Witch,https://upload.wikimedia.org/wikipedia/commons/thumb/e/e3/Wookey_Hole_Cave.jpg/800px-Wookey_Hole_Cave.jpg,Series of limestone caverns and underground river famous for the Witch of Wookey.,
189,Glastonbury Tor,Nature,Glastonbury,Somerset,BA6 8BH,51.1447,-2.6986,https://www.nationaltrust.org.uk,,24-Jul,1,4.8,60,Views;Spiritual;Hiking,https://upload.wikimedia.org/wikipedia/commons/thumb/1/1c/Glastonbury_Tor_Somerset.jpg/800px-Glastonbury_Tor_Somerset.jpg,"Conical hill topped by the roofless St Michael's Tower, linked to King Arthur.",
190,Tintagel Castle,History,Tintagel,Cornwall,PL34 0HE,50.6675,-4.7588,https://www.english-heritage.org.uk,+44 370 333 1181,10:00-17:00,3,4.7,120,King Arthur;Ruins;Coast,https://upload.wikimedia.org/wikipedia/commons/thumb/e/e6/Tintagel_Castle_Bridge.jpg/800px-Tintagel_Castle_Bridge.jpg,Medieval fortification located on the peninsula of Tintagel Island.,
191,Minack Theatre,Attraction,Porthcurno,Cornwall,TR19 6JU,50.0406,-5.651,https://www.minack.com,+44 1736 810181,10:00-16:30,2,4.8,90,Theatre;Views;Unique,https://upload.wikimedia.org/wikipedia/commons/thumb/1/1a/Minack_Theatre_Cornwall.jpg/800px-Minack_Theatre_Cornwall.jpg,Open-air theatre carved into the granite cliff overlooking the sea.,
192,The Lost Gardens of Heligan,Nature,Pentewan,Cornwall,PL26 6EN,50.2858,-4.8118,https://www.heligan.com,+44 1726 845100,10:00-17:00,3,4.7,180,Gardens;Nature;Walk,https://upload.wikimedia.org/wikipedia/commons/thumb/c/ca/Heligan_Gardens_Mud_Maid.jpg/800px-Heligan_Gardens_Mud_Maid.jpg,"One of the most popular botanical gardens in the UK, rediscovered in 1990.",
193,Land's End,Attraction,Sennen,Cornwall,TR19 7AA,50.0657,-5.713,https://landsend-landmark.co.uk,,10:00-17:00,2,3.9,60,Views;Landmark;Coast,https://upload.wikimedia.org/wikipedia/commons/thumb/e/eb/Lands_End_Signpost.jpg/800px-Lands_End_Signpost.jpg,The most westerly point of mainland England.,
194,Fistral Beach,Nature,Newquay,Cornwall,TR7 1HY,50.4168,-5.1009,https://www.fistralbeach.co.uk,,24-Jul,1,4.7,120,Beach;Surfing;Sunset,https://upload.wikimedia.org/wikipedia/commons/thumb/9/9f/Fistral_Beach_Newquay.jpg/800px-Fistral_Beach_Newquay.jpg,One of the world's top surfing destinations with golden sand.,
195,Padstow Harbour,Attraction,Padstow,Cornwall,PL28 8AQ,50.5404,-4.9366,https://padstowharbour.co.uk,,24-Jul,1,4.7,60,Food;Boats;Seaside,https://upload.wikimedia.org/wikipedia/commons/thumb/7/75/Padstow_Harbour.jpg/800px-Padstow_Harbour.jpg,Charming fishing port famous for Rick Stein's seafood restaurants.,
197,Royal Mile,Attraction,Royal Mile,Edinburgh,EH1,55.9497,-3.19,,,Always open,1,4.6,120,"walking,history",https://upload.wikimedia.org/wikipedia/commons/thumb/7/75/Padstow_Harbour.jpg/800px-Padstow_Harbour.jpg,Historic street linking castle and palace.,
201,Albert Dock,Attraction,Albert Dock,Liverpool,L3 4AA,53.4009,-2.9945,,,Always open,1,4.7,120,"waterfront,museum",https://upload.wikimedia.org/wikipedia/commons/thumb/7/75/Padstow_Harbour.jpg/800px-Padstow_Harbour.jpg,Historic dock complex with museums and galleries.,
202,Cardiff Castle,Castle,Castle St,Cardiff,CF10 3RB,51.4826,-3.1815,https://www.cardiffcastle.com,,10:00-17:00,2,4.6,120,"castle,history",https://upload.wikimedia.org/wikipedia/commons/thumb/7/75/Padstow_Harbour.jpg/800px-Padstow_Harbour.jpg,Medieval castle in the city centre.,
209,Globe Theatre,Theatre,21 New Globe Walk,London,SE1 9DT,51.5081,-0.0974,https://www.shakespearesglobe.com,,10:00-18:00,2,4.6,120,"theatre,history",https://upload.wikimedia.org/wikipedia/commons/thumb/7/75/Padstow_Harbour.jpg/800px-Padstow_Harbour.jpg,Reconstruction of Shakespeare's historic open-air theatre.,
212,Peak District National Park,Nature,Peak District,Derbyshire,S33,53.34,-1.775,https://www.peakdistrict.gov.uk,,Always open,1,4.8,240,"national park,hiking",https://upload.wikimedia.org/wikipedia/commons/thumb/7/75/Padstow_Harbour.jpg/800px-Padstow_Harbour.jpg,England's first national park with dramatic landscapes.,
215,The Ivy,Restaurant,West St,London,WC2H 9NQ,51.5129,-0.126,https://theivy.co.uk,,11:30-23:00,3,4.4,120,"restaurant,classic",https://upload.wikimedia.org/wikipedia/commons/thumb/7/75/Padstow_Harbour.jpg/800px-Padstow_Harbour.jpg,Classic London restaurant with theatrical charm.,
216,The Balmoral Hotel,Hotel,1 Princes St,Edinburgh,EH2 2EQ,55.9521,-3.189,https://www.roccofortehotels.com,,24 hours,3,4.8,720,"luxury,hotel",https://upload.wikimedia.org/wikipedia/commons/thumb/7/75/Padstow_Harbour.jpg/800px-Padstow_Harbour.jpg,Luxury landmark hotel overlooking Princes Street.,
217,The Randolph Hotel,Hotel,Beaumont St,Oxford,OX1 2LN,51.7545,-1.2605,https://www.graduatehotels.com,,24 hours,3,4.6,720,"hotel,heritage",https://upload.wikimedia.org/wikipedia/commons/thumb/7/75/Padstow_Harbour.jpg/800px-Padstow_Harbour.jpg,Historic hotel in the heart of Oxford.,
220,Greenwich Observatory,Attraction,Blackheath Ave,London,SE10 8XJ,51.4769,-0.0005,https://www.rmg.co.uk/royal-observatory,,10:00-17:00,2,4.7,90,"science,history",https://upload.wikimedia.org/wikipedia/commons/thumb/7/75/Padstow_Harbour.jpg/800px-Padstow_Harbour.jpg,Home of the Prime Meridian.,
223,Holyrood Palace,Attraction,Canongate,Edinburgh,EH8 8DX,55.9524,-3.1726,https://www.rct.uk/visit/palace-of-holyroodhouse,,09:30-18:00,2,4.6,120,"royal,history",https://upload.wikimedia.org/wikipedia/commons/thumb/7/75/Padstow_Harbour.jpg/800px-Padstow_Harbour.jpg,Official residence of the monarch in Scotland.,
224,Calton Hill,Nature,Calton Hill,Edinburgh,EH7 5AA,55.9553,-3.1827,https://www.visitscotland.com,,Always open,1,4.8,60,"viewpoint,nature",https://upload.wikimedia.org/wikipedia/commons/thumb/7/75/Padstow_Harbour.jpg/800px-Padstow_Harbour.jpg,Hilltop with city views and monuments.,
226,Castlefield Urban Heritage Park,Attraction,Castlefield,Manchester,M3,53.474,-2.2547,https://www.visitmanchester.com,,Always open,1,4.5,90,"roman,canals",https://upload.wikimedia.org/wikipedia/commons/thumb/7/75/Padstow_Harbour.jpg/800px-Padstow_Harbour.jpg,Roman ruins and canalside walks.,
227,Clifford's Tower,Castle,Tower St,York,YO1 9SA,53.9556,-1.0804,https://www.english-heritage.org.uk,,10:00-17:00,2,4.5,60,"castle,history",https://upload.wikimedia.org/wikipedia/commons/thumb/7/75/Padstow_Harbour.jpg/800px-Padstow_Harbour.jpg,Medieval castle keep.,
228,National Railway Museum,Museum,Leeman Rd,York,YO26 4XJ,53.9605,-1.097,https://www.railwaymuseum.org.uk,,10:00-17:00,1,4.7,120,"trains,museum",https://upload.wikimedia.org/wikipedia/commons/thumb/7/75/Padstow_Harbour.jpg/800px-Padstow_Harbour.jpg,Britain's national railway collection.,
229,Radcliffe Camera,Attraction,Radcliffe Square,Oxford,OX1 3BG,51.7548,-1.2544,https://www.bodleian.ox.ac.uk,,Exterior view,1,4.7,45,"architecture,library",https://upload.wikimedia.org/wikipedia/commons/thumb/7/75/Padstow_Harbour.jpg/800px-Padstow_Harbour.jpg,Iconic circular library building.,
230,Christ Church Meadow,Nature,St Aldates,Oxford,OX1,51.7497,-1.253,https://www.oxford.gov.uk,,Always open,1,4.7,90,"nature,walk",https://upload.wikimedia.org/wikipedia/commons/thumb/7/75/Padstow_Harbour.jpg/800px-Padstow_Harbour.jpg,Riverside meadow walks.,
231,The Backs,Nature,Queen's Rd,Cambridge,CB3,52.205,0.113,https://www.visitcambridge.org,,Always open,1,4.8,90,"river,views",https://upload.wikimedia.org/wikipedia/commons/thumb/7/75/Padstow_Harbour.jpg/800px-Padstow_Harbour.jpg,Scenic riverside college views.,
232,Fitzwilliam Museum,Museum,Trumpington St,Cambridge,CB2 1RB,52.2006,0.119,https://www.fitzmuseum.cam.ac.uk,,10:00-17:00,1,4.8,120,"art,museum",https://upload.wikimedia.org/wikipedia/commons/thumb/7/75/Padstow_Harbour.jpg/800px-Padstow_Harbour.jpg,Major art and antiquities museum.,
233,Brandon Hill & Cabot Tower,Park,Great George St,Bristol,BS1 5RR,51.454,-2.609,https://www.bristol.gov.uk,,Always open,1,4.7,60,"park,viewpoint",https://upload.wikimedia.org/wikipedia/commons/thumb/7/75/Padstow_Harbour.jpg/800px-Padstow_Harbour.jpg,Park with panoramic city views.,
234,Harbourside,Attraction,Harbourside,Bristol,BS1,51.45,-2.597,https://visitbristol.co.uk,,Always open,1,4.6,120,"waterfront,walk",https://upload.wikimedia.org/wikipedia/commons/thumb/7/75/Padstow_Harbour.jpg/800px-Padstow_Harbour.jpg,Redeveloped dockside area.,
236,Chester City Walls,Attraction,City Walls,Chester,CH1,53.1934,-2.8931,https://www.visitcheshire.com,,Always open,1,4.7,90,"roman,walk",https://upload.wikimedia.org/wikipedia/commons/thumb/7/75/Padstow_Harbour.jpg/800px-Padstow_Harbour.jpg,Complete Roman city wall circuit.,
237,Brighton Pier,Attraction,Madeira Dr,Brighton,BN2 1TW,50.8194,-0.1364,https://brightonpier.co.uk,,11:00-22:00,1,4.4,90,"seaside,pier",https://upload.wikimedia.org/wikipedia/commons/thumb/7/75/Padstow_Harbour.jpg/800px-Padstow_Harbour.jpg,Classic Victorian seaside pier.,
239,Highcross Leicester,Shopping,Highcross St,Leicester,LE1 4AN,52.6369,-1.1336,https://www.highcrossleicester.com,+44 116 261 9300,09:00-20:00,2,4.4,120,"shopping,retail",https://upload.wikimedia.org/wikipedia/commons/thumb/7/75/Padstow_Harbour.jpg/800px-Padstow_Harbour.jpg,Major shopping centre in Leicester city centre.,
240,Lane7 Leicester,Entertainment,Highcross St,Leicester,LE1 4AN,52.6372,-1.1339,https://lane7.com/leicester,+44 116 319 0088,12:00-23:00,2,4.6,120,"bowling,games",https://upload.wikimedia.org/wikipedia/commons/thumb/7/75/Padstow_Harbour.jpg/800px-Padstow_Harbour.jpg,"Boutique bowling, arcade games and food.",
241,Curve Theatre,Theatre,Rutland St,Leicester,LE1 1SB,52.6338,-1.1315,https://www.curveonline.co.uk,+44 116 242 3595,Event dependent,2,4.7,150,"theatre,arts",https://upload.wikimedia.org/wikipedia/commons/thumb/7/75/Padstow_Harbour.jpg/800px-Padstow_Harbour.jpg,Flagship theatre hosting touring productions.,
242,Abbey Park,Park,Abbey Park Rd,Leicester,LE4 5AQ,52.6503,-1.1353,https://www.leicester.gov.uk,+44 116 299 5500,Always open,1,4.6,90,"park,nature",https://upload.wikimedia.org/wikipedia/commons/thumb/7/75/Padstow_Harbour.jpg/800px-Padstow_Harbour.jpg,Popular riverside park with gardens and ruins.,
243,Phoenix Cinema & Art Centre,Entertainment,4 Midland St,Leicester,LE1 1TG,52.6325,-1.1257,https://www.phoenix.org.uk,+44 116 242 2800,10:00-22:00,1,4.6,120,"cinema,independent",https://upload.wikimedia.org/wikipedia/commons/thumb/7/75/Padstow_Harbour.jpg/800px-Padstow_Harbour.jpg,Independent cinema and arts venue.,
244,Kayal Restaurant,Restaurant,Granby St,Leicester,LE1 6FG,52.6332,-1.1286,https://kayalrestaurant.co.uk,+44 116 254 0900,12:00-22:30,2,4.7,90,"indian,kerala",https://upload.wikimedia.org/wikipedia/commons/thumb/7/75/Padstow_Harbour.jpg/800px-Padstow_Harbour.jpg,Award-winning South Indian cuisine.,
245,Victoria Centre,Shopping,Glasshouse St,Nottingham,NG1 3QN,52.958,-1.1477,https://www.intu.co.uk/victoriacentre,+44 115 985 0000,09:00-20:00,2,4.3,120,"shopping,retail",https://upload.wikimedia.org/wikipedia/commons/thumb/7/75/Padstow_Harbour.jpg/800px-Padstow_Harbour.jpg,Large city-centre shopping mall.,
246,Roxy Ball Room Nottingham,Entertainment,Thurland St,Nottingham,NG1 3DR,52.9559,-1.147,https://roxysballroom.com,+44 115 950 8191,12:00-23:00,2,4.6,120,"bowling,games",https://upload.wikimedia.org/wikipedia/commons/thumb/7/75/Padstow_Harbour.jpg/800px-Padstow_Harbour.jpg,"Bowling, pool and competitive socialising.",
247,Nottingham Contemporary,Gallery,Weekday Cross,Nottingham,NG1 2GB,52.9516,-1.1442,https://www.nottinghamcontemporary.org,+44 115 948 9750,10:00-18:00,1,4.4,90,"art,modern",https://upload.wikimedia.org/wikipedia/commons/thumb/7/75/Padstow_Harbour.jpg/800px-Padstow_Harbour.jpg,Contemporary art gallery with exhibitions.,
248,Wollaton Hall & Park,Nature,Wollaton Rd,Nottingham,NG8 2AE,52.9477,-1.2126,https://www.wollatonhall.org.uk,+44 115 876 3100,Always open,1,4.8,150,"park,manor",https://upload.wikimedia.org/wikipedia/commons/thumb/7/75/Padstow_Harbour.jpg/800px-Padstow_Harbour.jpg,Elizabethan mansion in expansive parkland.,
249,Derbion,Shopping,London Rd,Derby,DE1 2PQ,52.9207,-1.4659,https://www.derbion.com,+44 1332 643322,09:00-20:00,2,4.2,120,"shopping,retail",https://upload.wikimedia.org/wikipedia/commons/thumb/7/75/Padstow_Harbour.jpg/800px-Padstow_Harbour.jpg,Major shopping and leisure destination.,
250,Hollywood Bowl Derby,Entertainment,Wyvern Way,Derby,DE24 8JH,52.8917,-1.4476,https://www.hollywoodbowl.co.uk,+44 844 477 0483,10:00-23:00,2,4.5,120,"bowling,arcade",https://upload.wikimedia.org/wikipedia/commons/thumb/7/75/Padstow_Harbour.jpg/800px-Padstow_Harbour.jpg,Ten-pin bowling and arcade games.,
251,QUAD Derby,Entertainment,Market Pl,Derby,DE1 3AS,52.9219,-1.4764,https://www.derbyquad.co.uk,+44 1332 290606,10:00-22:00,1,4.5,120,"cinema,arts",https://upload.wikimedia.org/wikipedia/commons/thumb/7/75/Padstow_Harbour.jpg/800px-Padstow_Harbour.jpg,"Independent cinema, gallery and cafe.",
252,Bullring & Grand Central,Shopping,New St,Birmingham,B5 4BU,52.4776,-1.8932,https://www.bullring.co.uk,+44 121 632 1526,09:00-20:00,2,4.5,150,"shopping,retail",https://upload.wikimedia.org/wikipedia/commons/thumb/7/75/Padstow_Harbour.jpg/800px-Padstow_Harbour.jpg,Flagship shopping centre in Birmingham.,
253,Digbeth Dining Club,Food,Digbeth,Birmingham,B5 6DY,52.4755,-1.8836,https://digbethdiningclub.com,+44 121 270 0580,Event dependent,2,4.7,120,"street food,independent",https://upload.wikimedia.org/wikipedia/commons/thumb/7/75/Padstow_Harbour.jpg/800px-Padstow_Harbour.jpg,Popular street food events venue.,
254,The Glee Club Birmingham,Entertainment,Arcadian Centre,Birmingham,B5 4TD,52.4748,-1.8976,https://www.glee.co.uk,+44 121 622 4822,Event dependent,2,4.6,150,"comedy,nightlife",https://upload.wikimedia.org/wikipedia/commons/thumb/7/75/Padstow_Harbour.jpg/800px-Padstow_Harbour.jpg,Well-known comedy and live entertainment club.,
255,Cannon Hill Park,Park,Russell Rd,Birmingham,B13 8RD,52.4478,-1.8926,https://www.birmingham.gov.uk,+44 121 464 7878,Always open,1,4.6,120,"park,nature",https://upload.wikimedia.org/wikipedia/commons/thumb/7/75/Padstow_Harbour.jpg/800px-Padstow_Harbour.jpg,Large park with lakes and walking routes.,
256,Flight Club Birmingham,Entertainment,Temple St,Birmingham,B2 5BG,52.4791,-1.8991,https://flightclubdarts.com,+44 20 3019 3090,12:00-23:00,2,4.7,120,"games,darts",https://upload.wikimedia.org/wikipedia/commons/thumb/7/75/Padstow_Harbour.jpg/800px-Padstow_Harbour.jpg,"Social darts, food and cocktails.",
257,Social Climbing Leicester,Sport Venue,St George's Way,Leicester,LE1 1SH,52.636,-1.1349,https://www.socialclimbing.co.uk,+44 116 216 0550,09:00-22:00,2,4.8,120,"climbing,indoor",https://upload.wikimedia.org/wikipedia/commons/thumb/7/75/Padstow_Harbour.jpg/800px-Padstow_Harbour.jpg,Indoor bouldering and climbing centre.,
258,Boom Battle Bar Leicester,Entertainment,Highcross St,Leicester,LE1 4AN,52.6371,-1.1338,https://boombattlebar.com,+44 20 8016 7990,12:00-23:00,2,4.6,120,"axe throwing,games",https://upload.wikimedia.org/wikipedia/commons/thumb/7/75/Padstow_Harbour.jpg/800px-Padstow_Harbour.jpg,"Axe throwing, crazy golf and competitive games.",
260,Fosse Park,Shopping,Fosse Park Ave,Leicester,LE19 1UT,52.5826,-1.2315,https://www.fossepark.co.uk,+44 116 282 7590,10:00-20:00,2,4.5,150,"shopping,outlet",https://upload.wikimedia.org/wikipedia/commons/thumb/7/75/Padstow_Harbour.jpg/800px-Padstow_Harbour.jpg,Large out-of-town retail park.,
262,Great Central Railway,Attraction,Great Central Rd,Loughborough,LE11 1RW,52.7723,-1.2056,https://www.gcrailway.co.uk,+44 1509 633323,10:00-17:00,2,4.7,150,"heritage,railway",https://upload.wikimedia.org/wikipedia/commons/thumb/7/75/Padstow_Harbour.jpg/800px-Padstow_Harbour.jpg,Preserved steam railway experience.,
263,Abbey Pumping Station,Museum,Corporation Rd,Leicester,LE4 5PX,52.6597,-1.1179,https://www.leicester.gov.uk,+44 116 299 5111,10:00-16:30,1,4.5,90,"industrial,museum",https://upload.wikimedia.org/wikipedia/commons/thumb/7/75/Padstow_Harbour.jpg/800px-Padstow_Harbour.jpg,Museum of science and technology.,
264,Leicester Market,Market,Market Place,Leicester,LE1 5GG,52.6349,-1.1342,https://www.leicestermarket.co.uk,+44 116 454 4500,09:00-17:00,1,4.4,90,"market,food",https://upload.wikimedia.org/wikipedia/commons/thumb/7/75/Padstow_Harbour.jpg/800px-Padstow_Harbour.jpg,Large open-air food and produce market.,
265,Watermead Country Park,Nature,Wanlip Rd,Leicester,LE4 4JS,52.6724,-1.1026,https://www.leicestershire.gov.uk,+44 116 305 0001,Always open,1,4.7,120,"nature,lakes",https://upload.wikimedia.org/wikipedia/commons/thumb/7/75/Padstow_Harbour.jpg/800px-Padstow_Harbour.jpg,Country park with lakes and trails.,
267,Tenpin Nottingham,Entertainment,Clifton Blvd,Nottingham,NG7 2TU,52.9464,-1.1737,https://www.tenpin.co.uk,+44 115 979 2999,10:00-00:00,2,4.5,120,"bowling,arcade",https://upload.wikimedia.org/wikipedia/commons/thumb/7/75/Padstow_Harbour.jpg/800px-Padstow_Harbour.jpg,"Bowling, arcade and food venue.",
268,The Dice Cup,Entertainment,Mansfield Rd,Nottingham,NG1 3FN,52.9576,-1.1472,https://www.thedicecup.co.uk,+44 115 837 0753,12:00-23:00,1,4.8,120,"board games,cafe",https://upload.wikimedia.org/wikipedia/commons/thumb/7/75/Padstow_Harbour.jpg/800px-Padstow_Harbour.jpg,Board game café with extensive library.,
269,Sherwood Forest,Nature,Sherwood Forest,Nottinghamshire,NG21 9HN,53.205,-1.067,https://www.visitsherwood.co.uk,+44 1623 823202,Always open,1,4.7,180,"forest,legend",https://upload.wikimedia.org/wikipedia/commons/thumb/7/75/Padstow_Harbour.jpg/800px-Padstow_Harbour.jpg,Legendary forest of Robin Hood.,
270,Lincoln Castle,Castle,Castle Hill,Lincoln,LN1 3AA,53.2341,-0.539,https://www.lincolncastle.com,+44 1522 782040,10:00-16:00,2,4.6,120,"castle,history",https://upload.wikimedia.org/wikipedia/commons/thumb/7/75/Padstow_Harbour.jpg/800px-Padstow_Harbour.jpg,Norman castle with Magna Carta.,
271,Steep Hill,Attraction,Steep Hill,Lincoln,LN2,53.2346,-0.5374,https://www.visitlincoln.com,+44 1522 530120,Always open,1,4.5,45,"street,heritage",https://upload.wikimedia.org/wikipedia/commons/thumb/7/75/Padstow_Harbour.jpg/800px-Padstow_Harbour.jpg,Historic cobbled street with shops.,
272,Delapre Abbey,Attraction,Delapré Abbey,Northampton,NN4 8AW,52.2219,-0.8836,https://www.delapreabbey.org,+44 1604 750005,10:00-17:00,1,4.6,90,"abbey,history",https://upload.wikimedia.org/wikipedia/commons/thumb/7/75/Padstow_Harbour.jpg/800px-Padstow_Harbour.jpg,Historic abbey and parkland.,
273,Tenpin Northampton,Entertainment,Sixfields,Northampton,NN5 5QJ,52.2478,-0.9396,https://www.tenpin.co.uk,+44 1604 756667,10:00-00:00,2,4.4,120,"bowling,arcade",https://upload.wikimedia.org/wikipedia/commons/thumb/7/75/Padstow_Harbour.jpg/800px-Padstow_Harbour.jpg,Bowling and entertainment venue.,
275,Royal Shakespeare Theatre,Theatre,Waterside,Stratford-upon-Avon,CV37 6BB,52.191,-1.706,https://www.rsc.org.uk,+44 1789 331111,Event dependent,2,4.8,150,"theatre,arts",https://upload.wikimedia.org/wikipedia/commons/thumb/7/75/Padstow_Harbour.jpg/800px-Padstow_Harbour.jpg,Flagship theatre of the Royal Shakespeare Company.,
276,Anne Hathaway's Cottage,Attraction,Shottery,Stratford-upon-Avon,CV37 9HH,52.1834,-1.7243,https://www.shakespeare.org.uk,+44 1789 204016,10:00-17:00,2,4.6,90,"cottage,history",https://upload.wikimedia.org/wikipedia/commons/thumb/7/75/Padstow_Harbour.jpg/800px-Padstow_Harbour.jpg,Thatched cottage home of Shakespeare's wife.,
279,Royal Crescent,Attraction,Royal Crescent,Bath,BA1 2LR,51.3839,-2.3601,https://www.royalcrescent.co.uk,+44 1225 428126,10:00-17:01,1,4.7,60,"georgian,architecture",https://upload.wikimedia.org/wikipedia/commons/thumb/7/75/Padstow_Harbour.jpg/800px-Padstow_Harbour.jpg,Iconic crescent of Georgian townhouses.,
280,Prior Park Landscape Garden,Nature,Ralph Allen Dr,Bath,BA2 5LB,51.3676,-2.3548,https://www.nationaltrust.org.uk,+44 344 249 1895,10:00-17:00,1,4.6,120,"garden,views",https://upload.wikimedia.org/wikipedia/commons/thumb/7/75/Padstow_Harbour.jpg/800px-Padstow_Harbour.jpg,18th-century landscaped garden with views.,
282,Bourton-on-the-Water,Attraction,High St,Bourton-on-the-Water,GL54 2AF,51.884,-1.76,https://www.cotswolds.com,+44 1451 820654,Always open,1,4.6,90,"village,cotswolds",https://upload.wikimedia.org/wikipedia/commons/thumb/7/75/Padstow_Harbour.jpg/800px-Padstow_Harbour.jpg,Picturesque Cotswold village with bridges.,
283,Brighton Royal Pavilion,Attraction,4/5 Pavilion Buildings,Brighton,BN1 1EE,50.8225,-0.1372,https://brightonmuseums.org.uk,+44 300 029 2233,10:00-17:15,2,4.6,120,"palace,exotic",https://upload.wikimedia.org/wikipedia/commons/thumb/7/75/Padstow_Harbour.jpg/800px-Padstow_Harbour.jpg,Regency palace with Indo-Saracenic design.,
284,North Laine,Shopping,North Laine,Brighton,BN1,50.825,-0.136,https://www.visitbrighton.com,+44 1273 292716,Always open,1,4.5,120,"independent,shopping",https://upload.wikimedia.org/wikipedia/commons/thumb/7/75/Padstow_Harbour.jpg/800px-Padstow_Harbour.jpg,Independent shops and cafes area.,
285,Escape Leicester,Entertainment,"Horsefair House, Horsefair Street",Leicester,LE1 5BP,52.6359,-1.1369,https://www.escape-leicester.co.uk,0208 222 6660,10:00-22:00,2,4.7,90,"escape room,games",https://upload.wikimedia.org/wikipedia/commons/thumb/7/75/Padstow_Harbour.jpg/800px-Padstow_Harbour.jpg,Escape room experiences in central Leicester.,
286,Game of Throwing Leicester,Entertainment,21 Hotel Street,Leicester,LE1 5AW,52.6354,-1.1352,https://www.gameofthrowing.co.uk/game-of-throwing-leicester,0116 410 5013,12:00-22:00,2,4.6,90,"axe throwing,games",https://upload.wikimedia.org/wikipedia/commons/thumb/7/75/Padstow_Harbour.jpg/800px-Padstow_Harbour.jpg,Axe throwing venue with coached sessions.,
287,Caddyshackers Leicester (East Street Lanes),Entertainment,17-25 East Street,Leicester,LE1 6NB,52.6328,-1.131,https://caddyshackers.co.uk,,10:00-23:00,2,4.5,90,"crazy golf,bar",https://upload.wikimedia.org/wikipedia/commons/thumb/7/75/Padstow_Harbour.jpg/800px-Padstow_Harbour.jpg,Crazy golf and social games in East Street Lanes.,
288,The Circus,Attraction,The Circus,Bath,BA1 2ET,51.3847,-2.3606,https://visitbath.co.uk,,Always open,1,4.7,45,"georgian,architecture",https://upload.wikimedia.org/wikipedia/commons/thumb/7/75/Padstow_Harbour.jpg/800px-Padstow_Harbour.jpg,Georgian architectural landmark of three curved terraces.,
289,Pulteney Bridge,Attraction,Bridge Street,Bath,BA2 4AT,51.3852,-2.3578,https://visitbath.co.uk,,Always open,1,4.7,45,"bridge,architecture",https://upload.wikimedia.org/wikipedia/commons/thumb/7/75/Padstow_Harbour.jpg/800px-Padstow_Harbour.jpg,Historic bridge lined with shops over the River Avon.,
290,Holburne Museum,Museum,Great Pulteney Street,Bath,BA2 4DB,51.3866,-2.3535,https://www.holburne.org,+44 1225 388569,10:00-17:00,1,4.5,90,"art,museum",https://upload.wikimedia.org/wikipedia/commons/thumb/7/75/Padstow_Harbour.jpg/800px-Padstow_Harbour.jpg,Museum of fine and decorative arts.,
292,Dover Castle,Castle,Castle Hill Road,Dover,CT16 1HU,51.129,1.322,https://www.english-heritage.org.uk,,10:00-17:00,2,4.6,180,"castle,history",https://upload.wikimedia.org/wikipedia/commons/thumb/7/75/Padstow_Harbour.jpg/800px-Padstow_Harbour.jpg,Medieval fortress with dramatic coastal views.,
296,Legoland Windsor Resort,Theme Park,Winkfield Road,Windsor,SL4 4AY,51.4633,-0.6533,https://www.legoland.co.uk,,10:00-17:00,3,4.5,240,"theme park,family",https://upload.wikimedia.org/wikipedia/commons/thumb/7/75/Padstow_Harbour.jpg/800px-Padstow_Harbour.jpg,Family theme park with rides and LEGO attractions.,
298,Salisbury Cathedral,Attraction,6 The Close,Salisbury,SP1 2EJ,51.0645,-1.7976,https://www.salisburycathedral.org.uk,+44 1722 555120,10:00-16:00,2,4.8,120,"cathedral,architecture",https://upload.wikimedia.org/wikipedia/commons/thumb/7/75/Padstow_Harbour.jpg/800px-Padstow_Harbour.jpg,Cathedral with Britain's tallest spire.,
299,Jurassic Coast at Durdle Door,Nature,Durdle Door,West Lulworth,BH20 5PU,50.6206,-2.2749,https://www.jurassiccoast.org,,Always open,1,4.8,150,"coastal,cliffs",https://upload.wikimedia.org/wikipedia/commons/thumb/7/75/Padstow_Harbour.jpg/800px-Padstow_Harbour.jpg,Iconic limestone arch on the Jurassic Coast.,
300,Brighton Beach,Nature,Seafront,Brighton,BN2,50.8206,-0.1372,https://www.visitbrighton.com,,Always open,1,4.6,120,"seaside,walk",https://upload.wikimedia.org/wikipedia/commons/thumb/7/75/Padstow_Harbour.jpg/800px-Padstow_Harbour.jpg,Classic pebble beach and promenade.,
301,South Downs Way (Devil's Dyke),Nature,Devil's Dyke Road,Brighton,BN1 8YW,50.8804,-0.2422,https://www.southdowns.gov.uk,,Always open,1,4.8,180,"hiking,views",https://upload.wikimedia.org/wikipedia/commons/thumb/7/75/Padstow_Harbour.jpg/800px-Padstow_Harbour.jpg,South Downs viewpoint and walking routes.,
302,Portsmouth Historic Dockyard,Museum,"Victory Gate, HM Naval Base",Portsmouth,PO1 3LJ,50.8018,-1.1098,https://historicdockyard.co.uk,+44 23 9283 9766,10:00-17:00,3,4.6,240,"navy,history",https://upload.wikimedia.org/wikipedia/commons/thumb/7/75/Padstow_Harbour.jpg/800px-Padstow_Harbour.jpg,Historic ships including HMS Victory and Mary Rose.,
303,New Forest National Park,Nature,New Forest,Hampshire,SO43,50.879,-1.581,https://www.newforestnpa.gov.uk,,Always open,1,4.8,240,"national park,walks",https://upload.wikimedia.org/wikipedia/commons/thumb/7/75/Padstow_Harbour.jpg/800px-Padstow_Harbour.jpg,"Woodlands, heathland and wild ponies.",
304,Herb,Restaurant,41 Belvoir St,Leicester,LE1 6SL,52.6348,-1.1296,https://www.herbleicester.co.uk,+44 116 255 2999,12:00-22:00,2,4.6,90,"vegetarian,independent",https://upload.wikimedia.org/wikipedia/commons/thumb/7/75/Padstow_Harbour.jpg/800px-Padstow_Harbour.jpg,Vegetarian restaurant with bold flavours.,
305,The Case Restaurant,Restaurant,15-17 Gallowtree Gate,Leicester,LE1 5AD,52.6346,-1.1309,https://www.thecaserestaurant.co.uk,+44 116 255 2299,18:00-23:00,3,4.7,120,"fine dining,independent",https://upload.wikimedia.org/wikipedia/commons/thumb/7/75/Padstow_Harbour.jpg/800px-Padstow_Harbour.jpg,Modern British fine dining restaurant.,
306,Ramada Encore Leicester City Centre,Hotel,84-90 Charles St,Leicester,LE1 1GE,52.632,-1.133,https://www.wyndhamhotels.com,+44 116 255 0500,24 hours,2,4.2,720,"hotel,central",https://upload.wikimedia.org/wikipedia/commons/thumb/7/75/Padstow_Harbour.jpg/800px-Padstow_Harbour.jpg,Modern hotel close to city centre.,
307,Holiday Inn Leicester,Hotel,129 St Nicholas Cir,Leicester,LE1 5LX,52.6375,-1.1369,https://www.ihg.com,+44 116 482 1900,24 hours,2,4.3,720,"hotel,central",https://upload.wikimedia.org/wikipedia/commons/thumb/7/75/Padstow_Harbour.jpg/800px-Padstow_Harbour.jpg,Contemporary hotel overlooking Jubilee Square.,
308,Nottingham Castle,Castle,Lenton Rd,Nottingham,NG1 6EL,52.9501,-1.1547,https://www.nottinghamcastle.org.uk,+44 115 876 1400,10:00-17:00,2,4.4,120,"castle,history",https://upload.wikimedia.org/wikipedia/commons/thumb/7/75/Padstow_Harbour.jpg/800px-Padstow_Harbour.jpg,Historic castle with museum and views.,
309,Ye Olde Trip to Jerusalem,Pub,Brewhouse Yard,Nottingham,NG1 6AD,52.9512,-1.1557,https://www.greeneking.co.uk,+44 115 947 3172,11:00-23:00,2,4.5,90,"historic pub,food",https://upload.wikimedia.org/wikipedia/commons/thumb/7/75/Padstow_Harbour.jpg/800px-Padstow_Harbour.jpg,Claimed to be England's oldest inn.,
310,Ibis Nottingham Centre,Hotel,16 Fletcher Gate,Nottingham,NG1 2FS,52.953,-1.1459,https://all.accor.com,+44 115 985 3600,24 hours,2,4.1,720,"hotel,central",https://upload.wikimedia.org/wikipedia/commons/thumb/7/75/Padstow_Harbour.jpg/800px-Padstow_Harbour.jpg,Affordable city-centre hotel.,
311,The Circus Restaurant,Restaurant,34 Brock St,Bath,BA1 2LN,51.3849,-2.3618,https://www.thecircusrestaurant.co.uk,+44 1225 466666,18:00-22:30,3,4.7,120,"fine dining,local",https://upload.wikimedia.org/wikipedia/commons/thumb/7/75/Padstow_Harbour.jpg/800px-Padstow_Harbour.jpg,Seasonal British fine dining.,
313,Theatre Royal Bath,Theatre,Sawclose,Bath,BA1 1ET,51.3825,-2.3607,https://www.theatreroyal.org.uk,+44 1225 448844,Event dependent,2,4.7,150,"theatre,arts",https://upload.wikimedia.org/wikipedia/commons/thumb/7/75/Padstow_Harbour.jpg/800px-Padstow_Harbour.jpg,Major regional theatre.,
315,Dishoom Birmingham,Restaurant,One Chamberlain Sq,Birmingham,B3 3AX,52.4811,-1.9028,https://www.dishoom.com,+44 121 227 3215,08:00-23:00,2,4.6,90,"indian,restaurant",https://upload.wikimedia.org/wikipedia/commons/thumb/7/75/Padstow_Harbour.jpg/800px-Padstow_Harbour.jpg,Popular Bombay-style cafe.,
316,Hyatt Regency Birmingham,Hotel,2 Bridge St,Birmingham,B1 2JZ,52.4764,-1.9087,https://www.hyatt.com,+44 121 643 1234,24 hours,3,4.5,720,"hotel,luxury",https://upload.wikimedia.org/wikipedia/commons/thumb/7/75/Padstow_Harbour.jpg/800px-Padstow_Harbour.jpg,Upscale hotel near Brindleyplace.,
317,The Eagle and Child,Pub,49 St Giles',Oxford,OX1 3LU,51.7541,-1.2587,https://www.greeneking.co.uk,+44 1865 302925,11:00-23:00,2,4.4,90,"historic pub,food",https://upload.wikimedia.org/wikipedia/commons/thumb/7/75/Padstow_Harbour.jpg/800px-Padstow_Harbour.jpg,Famous literary pub linked to Tolkien.,
275,DoubleTree by Hilton Lincoln,Hotel,Brayford Wharf North,Lincoln,LN1 1YW,53.2309,-0.5476,https://www.hilton.com,,24h,3,4.3,720,hotel;stay;accommodation,https://upload.wikimedia.org/wikipedia/commons/thumb/7/75/Padstow_Harbour.jpg/800px-Padstow_Harbour.jpg,Modern riverside hotel overlooking Brayford Pool.,
276,Holiday Inn Lincoln,Hotel,Brayford Wharf North,Lincoln,LN1 1YW,53.2313,-0.5472,https://www.ihg.com/holidayinn,,24h,3,4.2,720,hotel;stay;accommodation,https://upload.wikimedia.org/wikipedia/commons/thumb/7/75/Padstow_Harbour.jpg/800px-Padstow_Harbour.jpg,Contemporary hotel located beside Brayford Marina.,
277,The Lincoln Hotel,Hotel,Eastgate,Lincoln,LN2 1PN,53.234,-0.5372,https://www.thelincolnhotel.com,,24h,3,4.2,720,hotel;stay;accommodation,https://upload.wikimedia.org/wikipedia/commons/thumb/7/75/Padstow_Harbour.jpg/800px-Padstow_Harbour.jpg,Hotel directly opposite Lincoln Cathedral with city views.,
278,White Hart Hotel,Hotel,Bailgate,Lincoln,LN1 3AR,53.2346,-0.5378,https://www.whitehart-lincoln.co.uk,,24h,3,4.1,720,hotel;stay;accommodation,https://upload.wikimedia.org/wikipedia/commons/thumb/7/75/Padstow_Harbour.jpg/800px-Padstow_Harbour.jpg,Historic hotel located in Lincoln's Cathedral Quarter.,
279,Tower Hotel Lincoln,Hotel,38 Westgate,Lincoln,LN1 3BD,53.2339,-0.54,https://www.towerhotel.co.uk,,24h,3,4.2,720,hotel;stay;accommodation,https://upload.wikimedia.org/wikipedia/commons/thumb/7/75/Padstow_Harbour.jpg/800px-Padstow_Harbour.jpg,Boutique hotel close to Lincoln Cathedral and castle.,
280,The Rest Hotel,Hotel,55 Steep Hill,Lincoln,LN2 1LU,53.2348,-0.537,https://www.resthotellincoln.co.uk,,24h,3,4.4,720,hotel;stay;accommodation,https://upload.wikimedia.org/wikipedia/commons/thumb/7/75/Padstow_Harbour.jpg/800px-Padstow_Harbour.jpg,Small boutique hotel located on historic Steep Hill.,
281,Washingborough Hall Hotel,Hotel,Church Hill Washingborough,Lincoln, LN4 1BE,53.2139,-0.4906,https://www.washingboroughhall.com,1522528086,24hr,3,4.6,720,hotel;historic,https://upload.wikimedia.org/wikipedia/commons/thumb/7/75/Padstow_Harbour.jpg/800px-Padstow_Harbour.jpg,Elegant country house hotel located just outside Lincoln.,
282,Branston Hall Hotel,Hotel,Branston,Lincoln,LN4 1PD,53.1808,-0.4694,https://branstonhallhotel.co.uk,,24h,4,4.3,720,hotel;stay;accommodation,https://upload.wikimedia.org/wikipedia/commons/thumb/7/75/Padstow_Harbour.jpg/800px-Padstow_Harbour.jpg,Country house hotel surrounded by parkland and golf course.,
283,Premier Inn Lincoln City Centre,Hotel,Broadgate,Lincoln,LN2 5AQ,53.2283,-0.5379,https://www.premierinn.com,,24h,2,4.2,720,hotel;stay;accommodation,https://upload.wikimedia.org/wikipedia/commons/thumb/7/75/Padstow_Harbour.jpg/800px-Padstow_Harbour.jpg,Budget-friendly hotel in central Lincoln.,
284,Premier Inn Lincoln Canwick,Hotel,Runcorn Road,Lincoln,LN4 2NB,53.2159,-0.5177,https://www.premierinn.com,,24h,2,4.1,720,hotel;stay;accommodation,https://upload.wikimedia.org/wikipedia/commons/thumb/7/75/Padstow_Harbour.jpg/800px-Padstow_Harbour.jpg,Comfortable budget hotel just outside Lincoln centre.,
285,Ole Ole Tapas Bar & Restaurant,Restaurant,33 Steep Hill,Lincoln,LN2 1LU,53.2346,-0.5372,https://www.oleolelincoln.co.uk,,Varies,3,4.6,90,restaurant;tapas;spanish,https://upload.wikimedia.org/wikipedia/commons/thumb/7/75/Padstow_Harbour.jpg/800px-Padstow_Harbour.jpg,Popular Spanish tapas restaurant on historic Steep Hill.,
286,The Jews House Restaurant,Restaurant,15 The Strait,Lincoln,LN2 1JD,53.2347,-0.5364,https://www.jewshouserestaurant.co.uk,,Varies,4,4.5,120,restaurant;fine-dining,https://upload.wikimedia.org/wikipedia/commons/thumb/7/75/Padstow_Harbour.jpg/800px-Padstow_Harbour.jpg,Historic fine dining restaurant in a medieval building.,
287,Cosy Club Lincoln,Restaurant,Brayford Wharf North,Lincoln,LN1 1YW,53.2307,-0.5479,https://cosyclub.co.uk/location/lincoln,,Varies,3,4.3,90,restaurant;brunch;modern,https://upload.wikimedia.org/wikipedia/commons/thumb/7/75/Padstow_Harbour.jpg/800px-Padstow_Harbour.jpg,Stylish restaurant and bar overlooking Brayford Pool.,
288,La Trattoria Da Vincenzo,Restaurant,14 West Parade,Lincoln,LN1 1JT,53.2316,-0.5486,https://www.davincenzolincoln.co.uk,,Varies,3,4.6,90,restaurant;italian,https://upload.wikimedia.org/wikipedia/commons/thumb/7/75/Padstow_Harbour.jpg/800px-Padstow_Harbour.jpg,Family-run Italian restaurant known for traditional dishes.,
289,Dough Loco,Restaurant,27 Silver Street,Lincoln,LN2 1EW,53.2305,-0.541,https://www.doughloco.co.uk,,Varies,2,4.5,60,restaurant;pizza,https://upload.wikimedia.org/wikipedia/commons/thumb/7/75/Padstow_Harbour.jpg/800px-Padstow_Harbour.jpg,Independent pizzeria specialising in sourdough pizza.,
290,Slow Rise Pizza,Restaurant,36 Steep Hill,Lincoln,LN2 1LU,53.2347,-0.5374,https://slowrisepizza.com,,Varies,2,4.6,60,restaurant;pizza,https://upload.wikimedia.org/wikipedia/commons/thumb/7/75/Padstow_Harbour.jpg/800px-Padstow_Harbour.jpg,Artisan sourdough pizza restaurant on Steep Hill.,
291,Castle View Indian Cuisine,Restaurant,6 Castle Hill,Lincoln,LN1 3AA,53.2343,-0.5388,https://castleviewindian.co.uk,,Varies,3,4.4,90,restaurant;indian,https://upload.wikimedia.org/wikipedia/commons/thumb/7/75/Padstow_Harbour.jpg/800px-Padstow_Harbour.jpg,Indian restaurant located near Lincoln Castle.,
292,Thailand No.1,Restaurant,80 High Street,Lincoln,LN5 7PY,53.2263,-0.5414,https://www.thailandno1.co.uk,,Varies,3,4.4,90,restaurant;thai,https://upload.wikimedia.org/wikipedia/commons/thumb/7/75/Padstow_Harbour.jpg/800px-Padstow_Harbour.jpg,Authentic Thai restaurant in central Lincoln.,
293,The Bronze Pig,Restaurant,4 Burton Road,Lincoln,LN1 3LB,53.2362,-0.5413,https://www.thebronzepig.co.uk,,Varies,4,4.7,120,restaurant;fine-dining,https://upload.wikimedia.org/wikipedia/commons/thumb/7/75/Padstow_Harbour.jpg/800px-Padstow_Harbour.jpg,Highly rated British fine dining restaurant.,
294,Lawson's Bar & Bistro,Restaurant,8 Castle Hill,Lincoln,LN1 3AA,53.2344,-0.5387,https://lawsonsbarbistro.co.uk,,Varies,3,4.5,90,restaurant;bistro,https://upload.wikimedia.org/wikipedia/commons/thumb/7/75/Padstow_Harbour.jpg/800px-Padstow_Harbour.jpg,Contemporary British bistro near Lincoln Castle.,
295,Titanic Hotel Liverpool,Hotel,Stanley Dock Regent Road,Liverpool,L3 0AN,53.4214,-2.9946,https://www.titanichotelliverpool.com,,24h,4,4.6,720,hotel;stay;accommodation,https://upload.wikimedia.org/wikipedia/commons/thumb/7/75/Padstow_Harbour.jpg/800px-Padstow_Harbour.jpg,Luxury hotel set in a restored historic warehouse at Stanley Dock.,
296,The Shankly Hotel,Hotel,Millenium House 60 Victoria Street,Liverpool,L1 6JD,53.4085,-2.986,https://www.shanklyhotel.com,,24h,4,4.2,720,hotel;stay;accommodation,https://upload.wikimedia.org/wikipedia/commons/thumb/7/75/Padstow_Harbour.jpg/800px-Padstow_Harbour.jpg,Football-themed hotel dedicated to Liverpool legend Bill Shankly.,
297,Hard Days Night Hotel,Hotel,Central Buildings North John Street,Liverpool,L2 6RR,53.4066,-2.9884,https://www.harddaysnighthotel.com,,24h,4,4.4,720,hotel;stay;accommodation,https://upload.wikimedia.org/wikipedia/commons/thumb/7/75/Padstow_Harbour.jpg/800px-Padstow_Harbour.jpg,Beatles-themed boutique hotel in Liverpool city centre.,
298,Malmaison Liverpool,Hotel,7 William Jessop Way,Liverpool,L3 1QZ,53.4049,-2.9941,https://www.malmaison.com,,24h,4,4.3,720,hotel;stay;accommodation,https://upload.wikimedia.org/wikipedia/commons/thumb/7/75/Padstow_Harbour.jpg/800px-Padstow_Harbour.jpg,Stylish waterfront hotel overlooking Princes Dock.,
299,Pullman Liverpool,Hotel,Kings Dock Port of Liverpool,Liverpool,L3 4FP,53.3975,-2.9918,https://all.accor.com,,24h,4,4.5,720,hotel;stay;accommodation,https://upload.wikimedia.org/wikipedia/commons/thumb/7/75/Padstow_Harbour.jpg/800px-Padstow_Harbour.jpg,Modern upscale hotel beside the ACC Liverpool waterfront.,
300,Hope Street Hotel,Hotel,40 Hope Street,Liverpool,L1 9DA,53.4009,-2.9717,https://www.hopestreethotel.co.uk,,24h,4,4.6,720,hotel;stay;accommodation,https://upload.wikimedia.org/wikipedia/commons/thumb/7/75/Padstow_Harbour.jpg/800px-Padstow_Harbour.jpg,Award-winning boutique hotel between the cathedrals.,
301,Radisson RED Liverpool,Hotel,Lime Street Chambers 7 Lime Street,Liverpool,L1 1RD,53.4078,-2.9797,https://www.radissonhotels.com,,24h,4,4.5,720,hotel;stay;accommodation,https://upload.wikimedia.org/wikipedia/commons/thumb/7/75/Padstow_Harbour.jpg/800px-Padstow_Harbour.jpg,Modern design hotel opposite Lime Street Station.,
302,Novotel Liverpool Centre,Hotel,40 Hanover Street,Liverpool,L1 4LN,53.4041,-2.9847,https://all.accor.com,,24h,3,4.3,720,hotel;stay;accommodation,https://upload.wikimedia.org/wikipedia/commons/thumb/7/75/Padstow_Harbour.jpg/800px-Padstow_Harbour.jpg,Contemporary family-friendly hotel in the city centre.,
303,Ibis Liverpool Centre Albert Dock,Hotel,27 Wapping,Liverpool,L1 8LY,53.4016,-2.9836,https://all.accor.com,,24h,2,4.1,720,hotel;stay;accommodation,https://upload.wikimedia.org/wikipedia/commons/thumb/7/75/Padstow_Harbour.jpg/800px-Padstow_Harbour.jpg,Affordable hotel close to Albert Dock attractions.,
304,Premier Inn Liverpool City Centre Albert Dock,Hotel,East Britannia Building Albert Dock,Liverpool,L3 4AD,53.4019,-2.9914,https://www.premierinn.com,,24h,2,4.2,720,hotel;stay;accommodation,https://upload.wikimedia.org/wikipedia/commons/thumb/7/75/Padstow_Harbour.jpg/800px-Padstow_Harbour.jpg,Popular budget hotel beside the Royal Albert Dock.,
305,Maray Bold Street,Restaurant,91 Bold Street,Liverpool,L1 4HF,53.4038,-2.9794,https://www.maray.co.uk,,Varies,3,4.7,90,restaurant;middle-eastern,https://upload.wikimedia.org/wikipedia/commons/thumb/7/75/Padstow_Harbour.jpg/800px-Padstow_Harbour.jpg,Highly rated Middle Eastern small plates restaurant.,
306,Bundobust Liverpool,Restaurant,Unit 5 The Waterways Leeds Street,Liverpool,L3 4AE,53.4094,-2.9935,https://bundobust.com,,Varies,2,4.6,90,restaurant;indian;vegetarian,https://upload.wikimedia.org/wikipedia/commons/thumb/7/75/Padstow_Harbour.jpg/800px-Padstow_Harbour.jpg,Indian street food restaurant paired with craft beer.,
